<?xml version="1.0" encoding="utf-8"?>
<markers><marker id="3453" storeid="913917" address1="Stadium" address2="1255 Hempstead Turnpike" city="Long Island" lat="40.719521" lng="-73.589096" distance="29.2577931058084" province="NY" postal="11553" phone="" timcard="FALSE" instoreseating="FALSE" hrs24="FALSE" coldstone="FALSE" wifi="FALSE" servicedisruptionflag="FALSE" drivethru="FALSE" doubledrivethru="FALSE" catering="FALSE" selfservice="FALSE" coldstonesoftswirl="" kurig="FALSE" tassimo="FALSE"/><marker id="3654" storeid="913808" address1="University" address2="735 Anderson Hill Rd" city="Purchase" lat="41.038799" lng="-73.695745" distance="37.2278958459008" province="NY" postal="10577" phone="(914) 251-6970" timcard="FALSE" instoreseating="FALSE" hrs24="FALSE" coldstone="FALSE" wifi="TRUE" servicedisruptionflag="FALSE" drivethru="FALSE" doubledrivethru="FALSE" catering="FALSE" selfservice="FALSE" coldstonesoftswirl="" kurig="FALSE" tassimo="FALSE"/><marker id="4241" storeid="915188" address1="Gas Station" address2="452 North Ave" city="New Rochelle" lat="40.917898" lng="-73.785996" distance="39.3143540602414" province="NY" postal="10801" phone="(914) 636-9818" timcard="TRUE" instoreseating="FALSE" hrs24="TRUE" coldstone="FALSE" wifi="TRUE" servicedisruptionflag="FALSE" drivethru="FALSE" doubledrivethru="FALSE" catering="FALSE" selfservice="FALSE" coldstonesoftswirl="" kurig="FALSE" tassimo="FALSE"/><marker id="3538" storeid="914163" address1="JFK Airtran Terminal" address2="93-40 Sutphin Blvd" city="Jamaica" lat="40.700380" lng="-73.807665" distance="40.7186229206867" province="NY" postal="11435" phone="(718) 725-0002" timcard="TRUE" instoreseating="FALSE" hrs24="TRUE" coldstone="FALSE" wifi="FALSE" servicedisruptionflag="FALSE" drivethru="FALSE" doubledrivethru="FALSE" catering="FALSE" selfservice="FALSE" coldstonesoftswirl="" kurig="FALSE" tassimo="FALSE"/><marker id="3517" storeid="913543" address1="(at 86th street)" address2="1276 Lexington Ave." city="New York" lat="40.779377" lng="-73.955667" distance="47.6926154064418" province="NY" postal="10028" phone="(212) 339-8868" timcard="TRUE" instoreseating="FALSE" hrs24="FALSE" coldstone="FALSE" wifi="FALSE" servicedisruptionflag="FALSE" drivethru="FALSE" doubledrivethru="FALSE" catering="FALSE" selfservice="FALSE" coldstonesoftswirl="" kurig="FALSE" tassimo="FALSE"/><marker id="3519" storeid="913561" address1="Tim Hortons and Cold Stone Creamery (at Broad" address2="162 72nd Street" city="New York" lat="40.776285" lng="-73.976105" distance="48.7733004136284" province="NY" postal="10105" phone="(212) 799-0488" timcard="FALSE" instoreseating="FALSE" hrs24="FALSE" coldstone="TRUE" wifi="FALSE" servicedisruptionflag="FALSE" drivethru="FALSE" doubledrivethru="FALSE" catering="FALSE" selfservice="FALSE" coldstonesoftswirl="" kurig="FALSE" tassimo="FALSE"/><marker id="3516" storeid="913542" address1="Grand Central Station (between Park and Madis" address2="47 East 42nd St." city="New York" lat="40.752698" lng="-73.979021" distance="49.0570411008184" province="NY" postal="10017" phone="(212) 681-8501" timcard="TRUE" instoreseating="FALSE" hrs24="FALSE" coldstone="FALSE" wifi="FALSE" servicedisruptionflag="FALSE" drivethru="FALSE" doubledrivethru="FALSE" catering="FALSE" selfservice="FALSE" coldstonesoftswirl="" kurig="FALSE" tassimo="FALSE"/><marker id="3518" storeid="913545" address1="(at 50th street)" address2="761 7th Avenue" city="New York" lat="40.761100" lng="-73.983259" distance="49.2250310091437" province="NY" postal="10019" phone="(212) 767-8347" timcard="TRUE" instoreseating="FALSE" hrs24="FALSE" coldstone="FALSE" wifi="FALSE" servicedisruptionflag="FALSE" drivethru="FALSE" doubledrivethru="FALSE" catering="FALSE" selfservice="FALSE" coldstonesoftswirl="" kurig="FALSE" tassimo="FALSE"/><marker id="3531" storeid="913851" address1="" address2="1021 6th Ave" city="Manhattan" lat="40.752343" lng="-73.985925" distance="49.4190977044887" province="NY" postal="10018" phone="" timcard="FALSE" instoreseating="FALSE" hrs24="FALSE" coldstone="FALSE" wifi="FALSE" servicedisruptionflag="FALSE" drivethru="FALSE" doubledrivethru="FALSE" catering="FALSE" selfservice="FALSE" coldstonesoftswirl="" kurig="FALSE" tassimo="FALSE"/><marker id="3520" storeid="913563" address1="Tim Hortons and Cold Stone Creamery (between " address2="750 9th Avenue" city="New York" lat="40.763784" lng="-73.988731" distance="49.4950294053611" province="NY" postal="10019" phone="(212) 757-1488" timcard="FALSE" instoreseating="FALSE" hrs24="FALSE" coldstone="TRUE" wifi="FALSE" servicedisruptionflag="FALSE" drivethru="FALSE" doubledrivethru="FALSE" catering="FALSE" selfservice="FALSE" coldstonesoftswirl="" kurig="FALSE" tassimo="FALSE"/><marker id="4202" storeid="913562" address1="Tim Hortons and Cold Stone Creamery" address2="253 W 42nd St" city="New York" lat="40.756816" lng="-73.988762" distance="49.5379428366766" province="NY" postal="10036" phone="(212) 398-1882" timcard="FALSE" instoreseating="TRUE" hrs24="FALSE" coldstone="TRUE" wifi="FALSE" servicedisruptionflag="FALSE" drivethru="FALSE" doubledrivethru="FALSE" catering="FALSE" selfservice="FALSE" coldstonesoftswirl="" kurig="FALSE" tassimo="FALSE"/><marker id="3515" storeid="913538" address1="(at 7th avenue)" address2="152 West 34th Streeet" city="New York" lat="40.750508" lng="-73.989479" distance="49.6166765853787" province="NY" postal="10001" phone="(212) 630-0319" timcard="TRUE" instoreseating="FALSE" hrs24="FALSE" coldstone="FALSE" wifi="FALSE" servicedisruptionflag="FALSE" drivethru="FALSE" doubledrivethru="FALSE" catering="FALSE" selfservice="FALSE" coldstonesoftswirl="" kurig="FALSE" tassimo="FALSE"/><marker id="3447" storeid="913544" address1="(at 16th street)" address2="34 East Union Square" city="New York" lat="40.735724" lng="-73.989139" distance="49.7107733730675" province="NY" postal="10025" phone="(646) 556-6380" timcard="FALSE" instoreseating="FALSE" hrs24="FALSE" coldstone="FALSE" wifi="FALSE" servicedisruptionflag="FALSE" drivethru="FALSE" doubledrivethru="FALSE" catering="FALSE" selfservice="FALSE" coldstonesoftswirl="" kurig="FALSE" tassimo="FALSE"/><marker id="3514" storeid="913537" address1="Hotel Pennsylvania (at 32nd street)" address2="401 7th Avenue" city="New York" lat="40.749733" lng="-73.991536" distance="49.7291536425902" province="NY" postal="10001" phone="(212) 630-0319" timcard="TRUE" instoreseating="FALSE" hrs24="FALSE" coldstone="FALSE" wifi="FALSE" servicedisruptionflag="FALSE" drivethru="FALSE" doubledrivethru="FALSE" catering="FALSE" selfservice="FALSE" coldstonesoftswirl="" kurig="FALSE" tassimo="FALSE"/><marker id="3512" storeid="913535" address1="Amtrak Level" address2="2 Penn Plaza" city="New York" lat="40.749560" lng="-73.991661" distance="49.7368621271482" province="NY" postal="10121" phone="(212) 620-0320" timcard="TRUE" instoreseating="FALSE" hrs24="FALSE" coldstone="FALSE" wifi="FALSE" servicedisruptionflag="FALSE" drivethru="FALSE" doubledrivethru="FALSE" catering="FALSE" selfservice="FALSE" coldstonesoftswirl="" kurig="FALSE" tassimo="FALSE"/><marker id="3935" storeid="913534" address1="Penn Station, Long Island Level" address2="1 Penn Plaza" city="New York" lat="40.749413" lng="-73.991886" distance="49.7496006534904" province="NY" postal="10119" phone="(212) 630-0314" timcard="TRUE" instoreseating="TRUE" hrs24="FALSE" coldstone="FALSE" wifi="FALSE" servicedisruptionflag="FALSE" drivethru="TRUE" doubledrivethru="FALSE" catering="FALSE" selfservice="FALSE" coldstonesoftswirl="" kurig="FALSE" tassimo="FALSE"/><marker id="3513" storeid="913536" address1="Madison Square Garden taxi ramp" address2="2 Penn Plaza" city="New York" lat="40.750600" lng="-73.996600" distance="49.9869746445499" province="NY" postal="10121" phone="(212) 594-0204" timcard="TRUE" instoreseating="FALSE" hrs24="FALSE" coldstone="FALSE" wifi="FALSE" servicedisruptionflag="FALSE" drivethru="FALSE" doubledrivethru="FALSE" catering="FALSE" selfservice="FALSE" coldstonesoftswirl="" kurig="FALSE" tassimo="FALSE"/><marker id="4209" storeid="914850" address1="Tim Hortons (Tops Market)" address2="381 Hamilton Street" city="Geneva" lat="40.495902" lng="-74.461191" distance="77.4816935821462" province="NY" postal="14456" phone="" timcard="FALSE" instoreseating="FALSE" hrs24="FALSE" coldstone="FALSE" wifi="FALSE" servicedisruptionflag="FALSE" drivethru="FALSE" doubledrivethru="FALSE" catering="FALSE" selfservice="FALSE" coldstonesoftswirl="" kurig="FALSE" tassimo="FALSE"/><marker id="4294" storeid="915228" address1="" address2="2765 State Route 23" city="Stockholm" lat="41.090500" lng="-74.522300" distance="79.3429164792514" province="NJ" postal="7460" phone="(973) 697-1600" timcard="FALSE" instoreseating="FALSE" hrs24="FALSE" coldstone="FALSE" wifi="FALSE" servicedisruptionflag="FALSE" drivethru="FALSE" doubledrivethru="FALSE" catering="FALSE" selfservice="FALSE" coldstonesoftswirl="" kurig="FALSE" tassimo="FALSE"/><marker id="3560" storeid="914822" address1="Xfinity Live" address2="1100 Pattison Avenue " city="Philadelphia" lat="39.904643" lng="-75.167855" distance="128.334293129872" province="PA" postal="19148" phone="" timcard="FALSE" instoreseating="FALSE" hrs24="FALSE" coldstone="FALSE" wifi="FALSE" servicedisruptionflag="FALSE" drivethru="FALSE" doubledrivethru="FALSE" catering="FALSE" selfservice="FALSE" coldstonesoftswirl="" kurig="FALSE" tassimo="FALSE"/><marker id="3462" storeid="914626" address1="Stadium" address2="3601 S. Broad Street" city="Philadelphia" lat="39.904272" lng="-75.171332" distance="128.506570201789" province="PA" postal="19148" phone="" timcard="FALSE" instoreseating="FALSE" hrs24="FALSE" coldstone="FALSE" wifi="FALSE" servicedisruptionflag="FALSE" drivethru="FALSE" doubledrivethru="FALSE" catering="FALSE" selfservice="FALSE" coldstonesoftswirl="" kurig="FALSE" tassimo="FALSE"/><marker id="3528" storeid="913798" address1="Tim Hortons and Cold Stone Creamery" address2="106 New Scotland Ave" city="Albany" lat="42.652610" lng="-73.778500" distance="132.287509228339" province="NY" postal="12208" phone="(518) 694-7218" timcard="FALSE" instoreseating="FALSE" hrs24="FALSE" coldstone="TRUE" wifi="FALSE" servicedisruptionflag="FALSE" drivethru="FALSE" doubledrivethru="FALSE" catering="FALSE" selfservice="FALSE" coldstonesoftswirl="" kurig="FALSE" tassimo="FALSE"/><marker id="3755" storeid="914802" address1="" address2="1174 Mt Cobb Rd" city="Lake Ariel" lat="41.409320" lng="-75.505990" distance="134.453480797411" province="PA" postal="18436" phone="(570) 689-3900" timcard="FALSE" instoreseating="FALSE" hrs24="TRUE" coldstone="FALSE" wifi="FALSE" servicedisruptionflag="FALSE" drivethru="FALSE" doubledrivethru="FALSE" catering="FALSE" selfservice="FALSE" coldstonesoftswirl="" kurig="FALSE" tassimo="FALSE"/><marker id="3529" storeid="913799" address1="University" address2="1400 Washington Ave" city="Albany" lat="42.689741" lng="-73.820390" distance="135.366404678728" province="NY" postal="12222" phone="(518) 442-3154" timcard="FALSE" instoreseating="FALSE" hrs24="FALSE" coldstone="FALSE" wifi="FALSE" servicedisruptionflag="FALSE" drivethru="FALSE" doubledrivethru="FALSE" catering="FALSE" selfservice="FALSE" coldstonesoftswirl="" kurig="FALSE" tassimo="FALSE"/><marker id="3723" storeid="914242" address1="Gas Station" address2="1028 Main St." city="Hobart" lat="42.371484" lng="-74.670907" distance="136.301992965666" province="NY" postal="13786" phone="" timcard="FALSE" instoreseating="FALSE" hrs24="FALSE" coldstone="FALSE" wifi="FALSE" servicedisruptionflag="FALSE" drivethru="FALSE" doubledrivethru="FALSE" catering="FALSE" selfservice="FALSE" coldstonesoftswirl="" kurig="FALSE" tassimo="FALSE"/><marker id="3734" storeid="914258" address1="Gas Station" address2="54 Elm St." city="Delhi" lat="42.275146" lng="-74.917243" distance="139.669682958669" province="NY" postal="13753" phone="" timcard="FALSE" instoreseating="FALSE" hrs24="FALSE" coldstone="FALSE" wifi="FALSE" servicedisruptionflag="FALSE" drivethru="FALSE" doubledrivethru="FALSE" catering="FALSE" selfservice="FALSE" coldstonesoftswirl="" kurig="FALSE" tassimo="FALSE"/><marker id="3712" storeid="914229" address1="Gas Station" address2="494 West Main Street" city="Hancock" lat="41.956423" lng="-75.293473" distance="140.604102336611" province="NY" postal="13783" phone="(607) 637-2906" timcard="FALSE" instoreseating="FALSE" hrs24="FALSE" coldstone="FALSE" wifi="FALSE" servicedisruptionflag="FALSE" drivethru="FALSE" doubledrivethru="FALSE" catering="FALSE" selfservice="FALSE" coldstonesoftswirl="" kurig="FALSE" tassimo="FALSE"/><marker id="3714" storeid="914231" address1="Gas Station" address2="1308 E Main St" city="Endicott" lat="41.956423" lng="-75.293473" distance="140.604102336611" province="NY" postal="13760" phone="(607) 754-2664" timcard="FALSE" instoreseating="FALSE" hrs24="FALSE" coldstone="FALSE" wifi="FALSE" servicedisruptionflag="FALSE" drivethru="FALSE" doubledrivethru="FALSE" catering="FALSE" selfservice="FALSE" coldstonesoftswirl="" kurig="FALSE" tassimo="FALSE"/><marker id="3736" storeid="914261" address1="" address2="15863 St Hwy 23" city="Davenport" lat="42.470070" lng="-74.847590" distance="147.276944463295" province="NY" postal="13750" phone="" timcard="FALSE" instoreseating="FALSE" hrs24="FALSE" coldstone="FALSE" wifi="FALSE" servicedisruptionflag="FALSE" drivethru="FALSE" doubledrivethru="FALSE" catering="FALSE" selfservice="FALSE" coldstonesoftswirl="" kurig="FALSE" tassimo="FALSE"/><marker id="3464" storeid="914702" address1="Stadium" address2="225 Highland Park Blvd " city="Hanover Township" lat="41.238095" lng="-75.853572" distance="149.228535680649" province="PA" postal="18702" phone="" timcard="FALSE" instoreseating="FALSE" hrs24="FALSE" coldstone="FALSE" wifi="FALSE" servicedisruptionflag="FALSE" drivethru="FALSE" doubledrivethru="FALSE" catering="FALSE" selfservice="FALSE" coldstonesoftswirl="" kurig="FALSE" tassimo="FALSE"/><marker id="3727" storeid="914247" address1="Gas Station" address2="360 St Hwy 10" city="Deposit" lat="42.060083" lng="-75.427677" distance="150.309124076943" province="NY" postal="13754" phone="" timcard="FALSE" instoreseating="FALSE" hrs24="FALSE" coldstone="FALSE" wifi="FALSE" servicedisruptionflag="FALSE" drivethru="FALSE" doubledrivethru="FALSE" catering="FALSE" selfservice="FALSE" coldstonesoftswirl="" kurig="FALSE" tassimo="FALSE"/><marker id="3728" storeid="914248" address1="Gas Station" address2="4968 State Highway 23" city="Oneonta" lat="42.448635" lng="-75.036947" distance="152.554761498449" province="NY" postal="13820" phone="(607) 432-8880" timcard="FALSE" instoreseating="FALSE" hrs24="FALSE" coldstone="FALSE" wifi="FALSE" servicedisruptionflag="FALSE" drivethru="FALSE" doubledrivethru="FALSE" catering="FALSE" selfservice="FALSE" coldstonesoftswirl="" kurig="FALSE" tassimo="FALSE"/><marker id="3732" storeid="914253" address1="Gas Station" address2="570 Main St." city="Oneonta" lat="42.456879" lng="-75.039268" distance="153.05206789862" province="NY" postal="13820" phone="" timcard="FALSE" instoreseating="FALSE" hrs24="FALSE" coldstone="FALSE" wifi="FALSE" servicedisruptionflag="FALSE" drivethru="FALSE" doubledrivethru="FALSE" catering="FALSE" selfservice="FALSE" coldstonesoftswirl="" kurig="FALSE" tassimo="FALSE"/><marker id="3720" storeid="914237" address1="" address2="195 County RT 48" city="Otego" lat="42.384846" lng="-75.173565" distance="154.311287417015" province="NY" postal="13825" phone="" timcard="FALSE" instoreseating="FALSE" hrs24="FALSE" coldstone="FALSE" wifi="FALSE" servicedisruptionflag="FALSE" drivethru="FALSE" doubledrivethru="FALSE" catering="FALSE" selfservice="FALSE" coldstonesoftswirl="" kurig="FALSE" tassimo="FALSE"/><marker id="3731" storeid="914252" address1="CITGO" address2="169 Oneida St" city="Oneonta" lat="42.444890" lng="-75.106730" distance="154.820846730028" province="NY" postal="13820" phone="" timcard="FALSE" instoreseating="FALSE" hrs24="FALSE" coldstone="FALSE" wifi="FALSE" servicedisruptionflag="FALSE" drivethru="FALSE" doubledrivethru="FALSE" catering="FALSE" selfservice="FALSE" coldstonesoftswirl="" kurig="FALSE" tassimo="FALSE"/><marker id="3718" storeid="914235" address1="Gas Station" address2="4102 State Highway 23" city="West Oneonta" lat="42.470608" lng="-75.108289" distance="156.156125572348" province="NY" postal="13861" phone="(607) 432-3737" timcard="FALSE" instoreseating="FALSE" hrs24="FALSE" coldstone="FALSE" wifi="FALSE" servicedisruptionflag="FALSE" drivethru="FALSE" doubledrivethru="FALSE" catering="FALSE" selfservice="FALSE" coldstonesoftswirl="" kurig="FALSE" tassimo="FALSE"/><marker id="3730" storeid="914251" address1="Gas Station" address2="180 Main St." city="Unadilla" lat="42.321567" lng="-75.330114" distance="157.296015681512" province="NY" postal="13849" phone="" timcard="FALSE" instoreseating="FALSE" hrs24="FALSE" coldstone="FALSE" wifi="FALSE" servicedisruptionflag="FALSE" drivethru="FALSE" doubledrivethru="FALSE" catering="FALSE" selfservice="FALSE" coldstonesoftswirl="" kurig="FALSE" tassimo="FALSE"/><marker id="3725" storeid="914245" address1="Gas Station" address2="1 West Main St." city="Sidney" lat="42.313034" lng="-75.389803" distance="159.248355273235" province="NY" postal="13838" phone="(607) 563-1321 " timcard="FALSE" instoreseating="FALSE" hrs24="FALSE" coldstone="FALSE" wifi="FALSE" servicedisruptionflag="FALSE" drivethru="FALSE" doubledrivethru="FALSE" catering="FALSE" selfservice="FALSE" coldstonesoftswirl="" kurig="FALSE" tassimo="FALSE"/><marker id="3724" storeid="914244" address1="Gas Station" address2="112 Delaware Avenue" city="Sidney" lat="42.301297" lng="-75.407925" distance="159.44844054358" province="NY" postal="13838" phone="" timcard="FALSE" instoreseating="FALSE" hrs24="FALSE" coldstone="FALSE" wifi="FALSE" servicedisruptionflag="FALSE" drivethru="FALSE" doubledrivethru="FALSE" catering="FALSE" selfservice="FALSE" coldstonesoftswirl="" kurig="FALSE" tassimo="FALSE"/><marker id="3578" storeid="914296" address1="Great Bend Travel Plaza" address2="25106 State Route 11" city="Hallstead" lat="41.960830" lng="-75.743351" distance="160.607852205239" province="PA" postal="18822" phone="(570) 879-8107" timcard="TRUE" instoreseating="TRUE" hrs24="TRUE" coldstone="FALSE" wifi="FALSE" servicedisruptionflag="FALSE" drivethru="TRUE" doubledrivethru="FALSE" catering="FALSE" selfservice="FALSE" coldstonesoftswirl="" kurig="FALSE" tassimo="FALSE"/><marker id="3689" storeid="913855" address1="Tim Hortons (Tops Market)" address2="5 Commons Dr. Rte 28" city="Cooperstown" lat="42.649856" lng="-74.962977" distance="160.615580547254" province="NY" postal="13326" phone="(607) 547-5956" timcard="FALSE" instoreseating="FALSE" hrs24="FALSE" coldstone="FALSE" wifi="FALSE" servicedisruptionflag="FALSE" drivethru="FALSE" doubledrivethru="FALSE" catering="FALSE" selfservice="FALSE" coldstonesoftswirl="" kurig="FALSE" tassimo="FALSE"/><marker id="3722" storeid="914241" address1="Gas Station" address2="49 Genesee St." city="Cherry Valley" lat="42.797116" lng="-74.754483" distance="162.63129879804" province="NY" postal="13320" phone="" timcard="FALSE" instoreseating="FALSE" hrs24="FALSE" coldstone="FALSE" wifi="FALSE" servicedisruptionflag="FALSE" drivethru="FALSE" doubledrivethru="FALSE" catering="FALSE" selfservice="FALSE" coldstonesoftswirl="" kurig="FALSE" tassimo="FALSE"/><marker id="3571" storeid="914167" address1="Gas Station" address2="4192 State Highway 30" city="Amsterdam" lat="43.017368" lng="-74.193760" distance="163.039668836779" province="NY" postal="12010" phone="(518) 883-7807" timcard="TRUE" instoreseating="FALSE" hrs24="FALSE" coldstone="FALSE" wifi="FALSE" servicedisruptionflag="FALSE" drivethru="FALSE" doubledrivethru="FALSE" catering="FALSE" selfservice="FALSE" coldstonesoftswirl="" kurig="FALSE" tassimo="FALSE"/><marker id="3721" storeid="914238" address1="" address2="3622 NYS Rt 79" city="Harpursville " lat="42.182684" lng="-75.632209" distance="163.740043096648" province="NY" postal="13787" phone="" timcard="FALSE" instoreseating="FALSE" hrs24="FALSE" coldstone="FALSE" wifi="FALSE" servicedisruptionflag="FALSE" drivethru="FALSE" doubledrivethru="FALSE" catering="FALSE" selfservice="FALSE" coldstonesoftswirl="" kurig="FALSE" tassimo="FALSE"/><marker id="3735" storeid="914259" address1="Gas Station" address2="1178 Vestal Ave." city="Binghamton" lat="42.088924" lng="-75.914416" distance="172.584846654872" province="NY" postal="13903" phone="" timcard="FALSE" instoreseating="FALSE" hrs24="FALSE" coldstone="FALSE" wifi="FALSE" servicedisruptionflag="FALSE" drivethru="FALSE" doubledrivethru="FALSE" catering="FALSE" selfservice="FALSE" coldstonesoftswirl="" kurig="FALSE" tassimo="FALSE"/><marker id="3710" storeid="914227" address1="Gas Station" address2="10 North Canal St." city="Oxford" lat="42.442865" lng="-75.596773" distance="173.106796943076" province="NY" postal="13830" phone="" timcard="FALSE" instoreseating="FALSE" hrs24="FALSE" coldstone="FALSE" wifi="FALSE" servicedisruptionflag="FALSE" drivethru="FALSE" doubledrivethru="FALSE" catering="FALSE" selfservice="FALSE" coldstonesoftswirl="" kurig="FALSE" tassimo="FALSE"/><marker id="3556" storeid="914683" address1="Dover Air Force Base" address2="Building 421" city="Dover" lat="39.118687" lng="-75.456605" distance="173.455341636445" province="DE" postal="19902" phone="(302) 883-2144" timcard="TRUE" instoreseating="FALSE" hrs24="FALSE" coldstone="FALSE" wifi="FALSE" servicedisruptionflag="FALSE" drivethru="FALSE" doubledrivethru="FALSE" catering="FALSE" selfservice="FALSE" coldstonesoftswirl="" kurig="FALSE" tassimo="FALSE"/><marker id="3726" storeid="914246" address1="Gas Station" address2="5 Kattelville Rd." city="Chenango Bridge" lat="42.169179" lng="-75.873247" distance="173.593034833219" province="NY" postal="13745" phone="" timcard="FALSE" instoreseating="FALSE" hrs24="FALSE" coldstone="FALSE" wifi="FALSE" servicedisruptionflag="FALSE" drivethru="FALSE" doubledrivethru="FALSE" catering="FALSE" selfservice="FALSE" coldstonesoftswirl="" kurig="FALSE" tassimo="FALSE"/><marker id="3729" storeid="914250" address1="Gas Station" address2="1232 Upper Front St." city="Binghamton" lat="42.154846" lng="-75.896266" distance="174.084810902991" province="NY" postal="13905" phone="" timcard="FALSE" instoreseating="FALSE" hrs24="FALSE" coldstone="FALSE" wifi="FALSE" servicedisruptionflag="FALSE" drivethru="FALSE" doubledrivethru="FALSE" catering="FALSE" selfservice="FALSE" coldstonesoftswirl="" kurig="FALSE" tassimo="FALSE"/><marker id="3709" storeid="914226" address1="Gas Station" address2="4839 State Highway 23" city="Norwich" lat="42.540086" lng="-75.507917" distance="174.088492297459" province="NY" postal="13815" phone="(607) 336-2462" timcard="FALSE" instoreseating="FALSE" hrs24="FALSE" coldstone="FALSE" wifi="FALSE" servicedisruptionflag="FALSE" drivethru="FALSE" doubledrivethru="FALSE" catering="FALSE" selfservice="FALSE" coldstonesoftswirl="" kurig="FALSE" tassimo="FALSE"/><marker id="3690" storeid="913856" address1="Tops Market" address2="54 East Main St" city="Norwich" lat="42.531530" lng="-75.520230" distance="174.156591892479" province="NY" postal="13815" phone="" timcard="FALSE" instoreseating="FALSE" hrs24="FALSE" coldstone="FALSE" wifi="FALSE" servicedisruptionflag="FALSE" drivethru="FALSE" doubledrivethru="FALSE" catering="FALSE" selfservice="FALSE" coldstonesoftswirl="" kurig="FALSE" tassimo="FALSE"/><marker id="3716" storeid="914233" address1="Gas Station" address2="3300 Old Vestal Road" city="Vestal " lat="42.130151" lng="-75.993168" distance="177.502688634438" province="NY" postal="13851" phone="(607) 797-1980" timcard="FALSE" instoreseating="FALSE" hrs24="FALSE" coldstone="FALSE" wifi="FALSE" servicedisruptionflag="FALSE" drivethru="FALSE" doubledrivethru="FALSE" catering="FALSE" selfservice="FALSE" coldstonesoftswirl="" kurig="FALSE" tassimo="FALSE"/><marker id="3570" storeid="913795" address1="Gas Station" address2="1166 Castle Creek Rd" city="Castle Creek" lat="42.229429" lng="-75.919059" distance="177.785952357702" province="NY" postal="13744" phone="(607) 648-4425" timcard="TRUE" instoreseating="FALSE" hrs24="TRUE" coldstone="FALSE" wifi="FALSE" servicedisruptionflag="FALSE" drivethru="TRUE" doubledrivethru="FALSE" catering="FALSE" selfservice="FALSE" coldstonesoftswirl="" kurig="FALSE" tassimo="FALSE"/><marker id="3719" storeid="914236" address1="Gas Station" address2="1 E Main St. West" city="Winfield" lat="42.885792" lng="-75.187084" distance="180.450854273348" province="NY" postal="13491" phone="" timcard="FALSE" instoreseating="FALSE" hrs24="FALSE" coldstone="FALSE" wifi="FALSE" servicedisruptionflag="FALSE" drivethru="FALSE" doubledrivethru="FALSE" catering="FALSE" selfservice="FALSE" coldstonesoftswirl="" kurig="FALSE" tassimo="FALSE"/><marker id="3711" storeid="914228" address1="Gas Station" address2="84 North Main Street" city="Sherburne" lat="42.683911" lng="-75.501639" distance="180.698341316004" province="NY" postal="1360" phone="(607) 674-6823" timcard="FALSE" instoreseating="FALSE" hrs24="FALSE" coldstone="FALSE" wifi="FALSE" servicedisruptionflag="FALSE" drivethru="FALSE" doubledrivethru="FALSE" catering="FALSE" selfservice="FALSE" coldstonesoftswirl="" kurig="FALSE" tassimo="FALSE"/><marker id="3540" storeid="914165" address1="Aberdeen Proving Grounds (Army Facility)" address2="Aberdeen Proving Grounds G Bldg 6002" city="Aberdeen" lat="39.458760" lng="-76.112036" distance="187.234855370508" province="MD" postal="21005" phone="(443) 861-6564" timcard="TRUE" instoreseating="FALSE" hrs24="FALSE" coldstone="TRUE" wifi="FALSE" servicedisruptionflag="FALSE" drivethru="FALSE" doubledrivethru="FALSE" catering="TRUE" selfservice="FALSE" coldstonesoftswirl="" kurig="FALSE" tassimo="FALSE"/><marker id="3692" storeid="913858" address1="Tops Market" address2="1145 Rt 17C" city="Owego" lat="42.098775" lng="-76.235252" distance="187.38543970201" province="NY" postal="13827" phone="(604) 687-2546" timcard="FALSE" instoreseating="FALSE" hrs24="FALSE" coldstone="FALSE" wifi="FALSE" servicedisruptionflag="FALSE" drivethru="FALSE" doubledrivethru="FALSE" catering="FALSE" selfservice="FALSE" coldstonesoftswirl="" kurig="FALSE" tassimo="FALSE"/><marker id="3580" storeid="914166" address1="Aberdeen Proving Grounds (Army Facility)" address2="6008 Jayhawk Rd. Bldg 6008" city="Aberdeen" lat="39.475097" lng="-76.140110" distance="187.942320215844" province="MD" postal="21055" phone="(443) 861-6564   " timcard="TRUE" instoreseating="FALSE" hrs24="FALSE" coldstone="TRUE" wifi="FALSE" servicedisruptionflag="FALSE" drivethru="FALSE" doubledrivethru="FALSE" catering="FALSE" selfservice="FALSE" coldstonesoftswirl="" kurig="FALSE" tassimo="FALSE"/><marker id="3696" storeid="913865" address1="Tops Market" address2="Brandford Town Centre RR Box 6035" city="Towanda" lat="41.753700" lng="-76.477600" distance="189.561101314119" province="PA" postal="18848" phone="" timcard="FALSE" instoreseating="FALSE" hrs24="FALSE" coldstone="FALSE" wifi="FALSE" servicedisruptionflag="FALSE" drivethru="FALSE" doubledrivethru="FALSE" catering="FALSE" selfservice="FALSE" coldstonesoftswirl="" kurig="FALSE" tassimo="FALSE"/><marker id="3708" storeid="914225" address1="" address2="977 RT 79" city="Richford" lat="42.360790" lng="-76.210710" distance="195.236609737756" province="NY" postal="13835" phone="(607) 657-8302" timcard="FALSE" instoreseating="FALSE" hrs24="FALSE" coldstone="FALSE" wifi="FALSE" servicedisruptionflag="FALSE" drivethru="FALSE" doubledrivethru="FALSE" catering="FALSE" selfservice="FALSE" coldstonesoftswirl="" kurig="FALSE" tassimo="FALSE"/><marker id="3753" storeid="914704" address1="Tops Market" address2="448 North Keystone Ave." city="Sayre" lat="41.992659" lng="-76.529154" distance="197.941751209766" province="PA" postal="18840" phone="" timcard="FALSE" instoreseating="FALSE" hrs24="FALSE" coldstone="FALSE" wifi="FALSE" servicedisruptionflag="FALSE" drivethru="FALSE" doubledrivethru="FALSE" catering="FALSE" selfservice="FALSE" coldstonesoftswirl="" kurig="FALSE" tassimo="FALSE"/><marker id="3585" storeid="911157" address1="Tim Hortons (Tops Market)" address2="3014 Elmira Street" city="Sayre" lat="41.991850" lng="-76.547750" distance="198.799149782089" province="PA" postal="18810" phone="(570) 882-9188" timcard="FALSE" instoreseating="FALSE" hrs24="TRUE" coldstone="FALSE" wifi="FALSE" servicedisruptionflag="FALSE" drivethru="FALSE" doubledrivethru="FALSE" catering="FALSE" selfservice="FALSE" coldstonesoftswirl="" kurig="FALSE" tassimo="FALSE"/><marker id="3875" storeid="911062" address1="" address2="141 Clinton Avenue" city="Cortland" lat="42.606319" lng="-76.168170" distance="202.996096964533" province="NY" postal="13045" phone="(607) 662-0277" timcard="TRUE" instoreseating="TRUE" hrs24="TRUE" coldstone="FALSE" wifi="TRUE" servicedisruptionflag="FALSE" drivethru="TRUE" doubledrivethru="FALSE" catering="FALSE" selfservice="FALSE" coldstonesoftswirl="" kurig="TRUE" tassimo="FALSE"/><marker id="3674" storeid="913830" address1="Tim Hortons (Tops Market)" address2="87 E State St" city="Sherrill" lat="43.075468" lng="-75.593959" distance="203.667171126162" province="NY" postal="13461" phone="(315) 361-1689" timcard="FALSE" instoreseating="FALSE" hrs24="FALSE" coldstone="FALSE" wifi="FALSE" servicedisruptionflag="FALSE" drivethru="FALSE" doubledrivethru="FALSE" catering="FALSE" selfservice="FALSE" coldstonesoftswirl="" kurig="FALSE" tassimo="FALSE"/><marker id="3500" storeid="911166" address1="Tops Market" address2="3932 State Route 281" city="Cortland" lat="42.597277" lng="-76.205164" distance="204.145252616173" province="NY" postal="13045" phone="(607) 250-2500" timcard="TRUE" instoreseating="FALSE" hrs24="FALSE" coldstone="FALSE" wifi="FALSE" servicedisruptionflag="FALSE" drivethru="FALSE" doubledrivethru="FALSE" catering="FALSE" selfservice="FALSE" coldstonesoftswirl="" kurig="FALSE" tassimo="FALSE"/><marker id="3677" storeid="913833" address1="Tops Market" address2="71 Nelson St" city="Cazenovia" lat="42.926554" lng="-75.842545" distance="204.77610549956" province="NY" postal="13035" phone="(315) 655-4565" timcard="FALSE" instoreseating="FALSE" hrs24="FALSE" coldstone="FALSE" wifi="FALSE" servicedisruptionflag="FALSE" drivethru="FALSE" doubledrivethru="FALSE" catering="FALSE" selfservice="FALSE" coldstonesoftswirl="" kurig="FALSE" tassimo="FALSE"/><marker id="3695" storeid="913863" address1="Tops Market" address2="595 Elmira St" city="Troy" lat="41.790228" lng="-76.778765" distance="205.087127133463" province="PA" postal="16947" phone="" timcard="FALSE" instoreseating="FALSE" hrs24="FALSE" coldstone="FALSE" wifi="FALSE" servicedisruptionflag="FALSE" drivethru="FALSE" doubledrivethru="FALSE" catering="FALSE" selfservice="FALSE" coldstonesoftswirl="" kurig="FALSE" tassimo="FALSE"/><marker id="3685" storeid="913841" address1="Tim Hortons (Tops Market)" address2="217 Erie Blvd" city="Rome" lat="43.211288" lng="-75.460513" distance="206.673859281787" province="NY" postal="14738" phone="(315) 334-5300" timcard="FALSE" instoreseating="FALSE" hrs24="FALSE" coldstone="FALSE" wifi="FALSE" servicedisruptionflag="FALSE" drivethru="FALSE" doubledrivethru="FALSE" catering="FALSE" selfservice="FALSE" coldstonesoftswirl="" kurig="FALSE" tassimo="FALSE"/><marker id="3670" storeid="913826" address1="Tim Hortons (Tops Market)" address2="Rt 5 &amp; Oxbow Rd" city="Canastota" lat="43.069730" lng="-75.752140" distance="208.693340127806" province="NY" postal="13032" phone="(315) 697-2700" timcard="FALSE" instoreseating="FALSE" hrs24="FALSE" coldstone="FALSE" wifi="FALSE" servicedisruptionflag="FALSE" drivethru="FALSE" doubledrivethru="FALSE" catering="FALSE" selfservice="FALSE" coldstonesoftswirl="" kurig="FALSE" tassimo="FALSE"/><marker id="3557" storeid="914744" address1="Cornell University" address2="Robert Trent Jones Golf Course, 213 Warren Rd" city="Ithaca" lat="42.457021" lng="-76.468486" distance="209.918476474625" province="NY" postal="14850" phone="" timcard="FALSE" instoreseating="FALSE" hrs24="FALSE" coldstone="FALSE" wifi="FALSE" servicedisruptionflag="FALSE" drivethru="FALSE" doubledrivethru="FALSE" catering="FALSE" selfservice="FALSE" coldstonesoftswirl="" kurig="FALSE" tassimo="FALSE"/><marker id="3504" storeid="911232" address1="Tim Hortons (Tops Market)" address2="710 South Meadow Street" city="Ithaca" lat="42.432057" lng="-76.508021" distance="210.751643165823" province="NY" postal="14850" phone="(607) 275-8041" timcard="FALSE" instoreseating="FALSE" hrs24="TRUE" coldstone="FALSE" wifi="FALSE" servicedisruptionflag="FALSE" drivethru="FALSE" doubledrivethru="FALSE" catering="FALSE" selfservice="FALSE" coldstonesoftswirl="" kurig="FALSE" tassimo="FALSE"/><marker id="3649" storeid="911233" address1="Tops" address2="710 South Meadow St" city="Ithaca" lat="42.432490" lng="-76.508060" distance="210.768668103807" province="NY" postal="14850" phone="" timcard="FALSE" instoreseating="FALSE" hrs24="FALSE" coldstone="FALSE" wifi="FALSE" servicedisruptionflag="FALSE" drivethru="FALSE" doubledrivethru="FALSE" catering="FALSE" selfservice="FALSE" coldstonesoftswirl="" kurig="FALSE" tassimo="FALSE"/><marker id="3942" storeid="913780" address1="Tim Hortons and Cold Stone Creamery" address2="407 Elmira Rd." city="Ithaca" lat="42.419372" lng="-76.520332" distance="210.845217103964" province="NY" postal="14850" phone="(607) 272-2240" timcard="TRUE" instoreseating="TRUE" hrs24="TRUE" coldstone="TRUE" wifi="TRUE" servicedisruptionflag="FALSE" drivethru="TRUE" doubledrivethru="FALSE" catering="TRUE" selfservice="FALSE" coldstonesoftswirl="" kurig="TRUE" tassimo="FALSE"/><marker id="3754" storeid="914762" address1="Gas Station" address2="600 North Fulton St." city="Ithaca College" lat="42.445200" lng="-76.509222" distance="211.270432923914" province="NY" postal="14850" phone="" timcard="FALSE" instoreseating="FALSE" hrs24="FALSE" coldstone="FALSE" wifi="FALSE" servicedisruptionflag="FALSE" drivethru="FALSE" doubledrivethru="FALSE" catering="FALSE" selfservice="FALSE" coldstonesoftswirl="" kurig="FALSE" tassimo="FALSE"/><marker id="3648" storeid="911231" address1="Tim Hortons (Tops Market)" address2="2300 Triphammer Road" city="Ithaca" lat="42.482922" lng="-76.485161" distance="211.580923727479" province="NY" postal="14850" phone="(607) 257-4952" timcard="FALSE" instoreseating="FALSE" hrs24="TRUE" coldstone="FALSE" wifi="FALSE" servicedisruptionflag="FALSE" drivethru="FALSE" doubledrivethru="FALSE" catering="FALSE" selfservice="FALSE" coldstonesoftswirl="" kurig="FALSE" tassimo="FALSE"/><marker id="3448" storeid="913818" address1="Tim Hortons (Tops Market)" address2="1600 Cedar Street" city="Elmira" lat="42.057990" lng="-76.794240" distance="212.234493191072" province="NY" postal="14904" phone="(607) 734-8147" timcard="FALSE" instoreseating="FALSE" hrs24="FALSE" coldstone="FALSE" wifi="FALSE" servicedisruptionflag="FALSE" drivethru="FALSE" doubledrivethru="FALSE" catering="FALSE" selfservice="FALSE" coldstonesoftswirl="" kurig="FALSE" tassimo="FALSE"/><marker id="3669" storeid="913825" address1="Tim Hortons (Tops Market)" address2="800 W Genesee St" city="Chittenango" lat="43.047080" lng="-75.893650" distance="212.488379568965" province="NY" postal="13037" phone="(315) 687-9224" timcard="FALSE" instoreseating="FALSE" hrs24="FALSE" coldstone="FALSE" wifi="FALSE" servicedisruptionflag="FALSE" drivethru="FALSE" doubledrivethru="FALSE" catering="FALSE" selfservice="FALSE" coldstonesoftswirl="" kurig="FALSE" tassimo="FALSE"/><marker id="3590" storeid="911164" address1="" address2="299 S. Main Street" city="Elmira" lat="42.082452" lng="-76.804840" distance="213.38925391838" province="NY" postal="14904" phone="(607) 734-6686" timcard="FALSE" instoreseating="FALSE" hrs24="TRUE" coldstone="FALSE" wifi="FALSE" servicedisruptionflag="FALSE" drivethru="FALSE" doubledrivethru="FALSE" catering="FALSE" selfservice="FALSE" coldstonesoftswirl="" kurig="FALSE" tassimo="FALSE"/><marker id="3591" storeid="911165" address1="Tim Hortons (Tops Market)" address2="299 South Main Street" city="Elmira" lat="42.082452" lng="-76.804840" distance="213.38925391838" province="NY" postal="14904" phone="" timcard="FALSE" instoreseating="FALSE" hrs24="FALSE" coldstone="FALSE" wifi="FALSE" servicedisruptionflag="FALSE" drivethru="FALSE" doubledrivethru="FALSE" catering="FALSE" selfservice="FALSE" coldstonesoftswirl="" kurig="FALSE" tassimo="FALSE"/><marker id="3675" storeid="913831" address1="Tim Hortons (Tops Market)" address2="199 W Seneca St" city="Manilus" lat="42.997032" lng="-75.987034" distance="213.410787079609" province="NY" postal="13104" phone="(315) 682-7261" timcard="FALSE" instoreseating="FALSE" hrs24="FALSE" coldstone="FALSE" wifi="FALSE" servicedisruptionflag="FALSE" drivethru="FALSE" doubledrivethru="FALSE" catering="FALSE" selfservice="FALSE" coldstonesoftswirl="" kurig="FALSE" tassimo="FALSE"/><marker id="3673" storeid="913829" address1="Tops Market" address2="5351 N Burdick St" city="Fayetteville" lat="43.030350" lng="-76.016879" distance="216.094135351393" province="NY" postal="13066" phone="(315) 637-8039" timcard="FALSE" instoreseating="FALSE" hrs24="FALSE" coldstone="FALSE" wifi="FALSE" servicedisruptionflag="FALSE" drivethru="FALSE" doubledrivethru="FALSE" catering="FALSE" selfservice="FALSE" coldstonesoftswirl="" kurig="FALSE" tassimo="FALSE"/><marker id="3589" storeid="911163" address1="Tim Hortons (Tops Market)" address2="830 Consumer Square Plaza" city="Elmira" lat="42.130000" lng="-76.852800" distance="216.942374680796" province="NY" postal="14903" phone="(607) 739-0095" timcard="FALSE" instoreseating="FALSE" hrs24="TRUE" coldstone="FALSE" wifi="FALSE" servicedisruptionflag="FALSE" drivethru="FALSE" doubledrivethru="FALSE" catering="FALSE" selfservice="FALSE" coldstonesoftswirl="" kurig="FALSE" tassimo="FALSE"/><marker id="3750" storeid="914678" address1="Tops Market" address2="4600 East Genesee St." city="DeWitt" lat="43.034439" lng="-76.064371" distance="218.020764531171" province="NY" postal="13214" phone="" timcard="FALSE" instoreseating="FALSE" hrs24="FALSE" coldstone="FALSE" wifi="FALSE" servicedisruptionflag="FALSE" drivethru="FALSE" doubledrivethru="FALSE" catering="FALSE" selfservice="FALSE" coldstonesoftswirl="" kurig="FALSE" tassimo="FALSE"/><marker id="3681" storeid="913837" address1="Tim Hortons (Tops Market)" address2="4410 E Genesee St" city="De Witt" lat="43.035255" lng="-76.067585" distance="218.17721119899" province="NY" postal="13214" phone="(315) 446-6421" timcard="FALSE" instoreseating="FALSE" hrs24="FALSE" coldstone="FALSE" wifi="FALSE" servicedisruptionflag="FALSE" drivethru="FALSE" doubledrivethru="FALSE" catering="FALSE" selfservice="FALSE" coldstonesoftswirl="" kurig="FALSE" tassimo="FALSE"/><marker id="3889" storeid="911100" address1="" address2="7043 Manlius Center Road" city="East Syracuse" lat="43.062411" lng="-76.035668" distance="218.317720109318" province="NY" postal="13057" phone="(315) 656-7785" timcard="TRUE" instoreseating="TRUE" hrs24="FALSE" coldstone="FALSE" wifi="TRUE" servicedisruptionflag="FALSE" drivethru="TRUE" doubledrivethru="FALSE" catering="FALSE" selfservice="FALSE" coldstonesoftswirl="" kurig="TRUE" tassimo="FALSE"/><marker id="4225" storeid="914073" address1="Beverages only - Self-Serve" address2="3439 Erie Blvd. " city="Dewitt" lat="43.046255" lng="-76.067944" distance="218.714980569292" province="NY" postal="13214" phone="(315) 251-0605" timcard="FALSE" instoreseating="FALSE" hrs24="FALSE" coldstone="FALSE" wifi="FALSE" servicedisruptionflag="FALSE" drivethru="FALSE" doubledrivethru="FALSE" catering="FALSE" selfservice="FALSE" coldstonesoftswirl="" kurig="FALSE" tassimo="FALSE"/><marker id="3828" storeid="910898" address1="" address2="985 East Brighton Avenue" city="Syracuse" lat="43.002975" lng="-76.129859" distance="218.952648912356" province="NY" postal="13205" phone="(315) 492-2942" timcard="TRUE" instoreseating="TRUE" hrs24="TRUE" coldstone="FALSE" wifi="TRUE" servicedisruptionflag="FALSE" drivethru="TRUE" doubledrivethru="FALSE" catering="TRUE" selfservice="FALSE" coldstonesoftswirl="" kurig="TRUE" tassimo="FALSE"/><marker id="3672" storeid="913828" address1="Grocery" address2="620 Nottingham Rd" city="Syracuse" lat="43.021926" lng="-76.109486" distance="219.086312603682" province="NY" postal="13210" phone="(315) 446-5201" timcard="FALSE" instoreseating="FALSE" hrs24="FALSE" coldstone="FALSE" wifi="FALSE" servicedisruptionflag="FALSE" drivethru="FALSE" doubledrivethru="FALSE" catering="FALSE" selfservice="FALSE" coldstonesoftswirl="" kurig="FALSE" tassimo="FALSE"/><marker id="3759" storeid="914908" address1="Tops Market" address2="4141 S Salina St " city="Syracuse" lat="43.008347" lng="-76.141073" distance="219.621138409864" province="NY" postal="13212" phone="" timcard="FALSE" instoreseating="FALSE" hrs24="TRUE" coldstone="FALSE" wifi="FALSE" servicedisruptionflag="FALSE" drivethru="FALSE" doubledrivethru="FALSE" catering="FALSE" selfservice="FALSE" coldstonesoftswirl="" kurig="FALSE" tassimo="FALSE"/><marker id="3713" storeid="914230" address1="" address2="2501 Erie Blvd" city="Syracuse" lat="43.053850" lng="-76.104030" distance="220.396496558244" province="NY" postal="13224" phone="(315) 446-2900" timcard="FALSE" instoreseating="FALSE" hrs24="FALSE" coldstone="FALSE" wifi="FALSE" servicedisruptionflag="FALSE" drivethru="FALSE" doubledrivethru="FALSE" catering="FALSE" selfservice="FALSE" coldstonesoftswirl="" kurig="FALSE" tassimo="FALSE"/><marker id="3877" storeid="911064" address1="" address2="6227 Thompson Road" city="Syracuse" lat="43.072724" lng="-76.089155" distance="220.753667171316" province="NY" postal="13214" phone="(315) 434-1952" timcard="TRUE" instoreseating="TRUE" hrs24="TRUE" coldstone="FALSE" wifi="TRUE" servicedisruptionflag="FALSE" drivethru="TRUE" doubledrivethru="FALSE" catering="TRUE" selfservice="FALSE" coldstonesoftswirl="" kurig="TRUE" tassimo="FALSE"/><marker id="3510" storeid="913470" address1="Tim Hortons and Cold Stone Creamery" address2="750 East Adams St" city="Syracuse" lat="43.042690" lng="-76.140509" distance="221.210779478577" province="NY" postal="13210" phone="(315) 474-1019" timcard="FALSE" instoreseating="FALSE" hrs24="TRUE" coldstone="TRUE" wifi="FALSE" servicedisruptionflag="FALSE" drivethru="FALSE" doubledrivethru="FALSE" catering="TRUE" selfservice="FALSE" coldstonesoftswirl="" kurig="FALSE" tassimo="FALSE"/><marker id="3715" storeid="914232" address1="Gas Station" address2="4464 West Seneca Turnpike" city="Syracuse " lat="42.997387" lng="-76.203537" distance="221.453426562477" province="NY" postal="13212" phone="(315) 498-5621" timcard="FALSE" instoreseating="FALSE" hrs24="FALSE" coldstone="FALSE" wifi="FALSE" servicedisruptionflag="FALSE" drivethru="FALSE" doubledrivethru="FALSE" catering="FALSE" selfservice="FALSE" coldstonesoftswirl="" kurig="FALSE" tassimo="FALSE"/><marker id="3707" storeid="914224" address1="Gas Station" address2="356 N. Midler Ave." city="Syracuse" lat="43.075919" lng="-76.105375" distance="221.497365949204" province="NY" postal="13206" phone="(315) 432-0152 " timcard="FALSE" instoreseating="FALSE" hrs24="FALSE" coldstone="FALSE" wifi="FALSE" servicedisruptionflag="FALSE" drivethru="FALSE" doubledrivethru="FALSE" catering="FALSE" selfservice="FALSE" coldstonesoftswirl="" kurig="FALSE" tassimo="FALSE"/><marker id="3679" storeid="913835" address1="Tops Market" address2="181 Shop City Plaza" city="Syracuse" lat="43.073520" lng="-76.120430" distance="221.932737751216" province="NY" postal="13206" phone="(315) 437-5201" timcard="FALSE" instoreseating="FALSE" hrs24="FALSE" coldstone="FALSE" wifi="FALSE" servicedisruptionflag="FALSE" drivethru="FALSE" doubledrivethru="FALSE" catering="FALSE" selfservice="FALSE" coldstonesoftswirl="" kurig="FALSE" tassimo="FALSE"/><marker id="3924" storeid="913325" address1="Tim Hortons and Cold Stone Creamery" address2="4753 Onondaga Blvd" city="Geddes" lat="43.033372" lng="-76.189642" distance="222.598677579373" province="NY" postal="13219" phone="(315) 422-4507" timcard="TRUE" instoreseating="TRUE" hrs24="TRUE" coldstone="TRUE" wifi="TRUE" servicedisruptionflag="FALSE" drivethru="TRUE" doubledrivethru="FALSE" catering="FALSE" selfservice="FALSE" coldstonesoftswirl="" kurig="TRUE" tassimo="FALSE"/><marker id="4267" storeid="915184" address1="Tops Market" address2="700 1st North St. " city="Syracuse" lat="43.069379" lng="-76.148956" distance="222.782306761434" province="NY" postal="13208" phone="" timcard="FALSE" instoreseating="FALSE" hrs24="FALSE" coldstone="FALSE" wifi="FALSE" servicedisruptionflag="FALSE" drivethru="FALSE" doubledrivethru="FALSE" catering="FALSE" selfservice="FALSE" coldstonesoftswirl="" kurig="FALSE" tassimo="FALSE"/><marker id="3927" storeid="913368" address1="" address2="6360 E Taft Rd" city="Cicero" lat="43.127120" lng="-76.080403" distance="223.060041700285" province="NY" postal="13057" phone="(315) 214-0160" timcard="TRUE" instoreseating="TRUE" hrs24="FALSE" coldstone="FALSE" wifi="FALSE" servicedisruptionflag="FALSE" drivethru="TRUE" doubledrivethru="FALSE" catering="TRUE" selfservice="FALSE" coldstonesoftswirl="" kurig="TRUE" tassimo="FALSE"/><marker id="3680" storeid="913836" address1="Tim Hortons (Tops Market)" address2="2120 W Genesee St" city="Syracuse" lat="43.048198" lng="-76.197151" distance="223.569866601533" province="NY" postal="13219" phone="(315) 488-2989" timcard="FALSE" instoreseating="FALSE" hrs24="FALSE" coldstone="FALSE" wifi="FALSE" servicedisruptionflag="FALSE" drivethru="FALSE" doubledrivethru="FALSE" catering="FALSE" selfservice="FALSE" coldstonesoftswirl="" kurig="FALSE" tassimo="FALSE"/><marker id="3906" storeid="911131" address1="" address2="1210 Buckley Rd" city="Liverpool" lat="43.091351" lng="-76.170023" distance="224.597163928257" province="NY" postal="13088" phone="(315) 457-2527" timcard="TRUE" instoreseating="TRUE" hrs24="FALSE" coldstone="FALSE" wifi="TRUE" servicedisruptionflag="FALSE" drivethru="TRUE" doubledrivethru="FALSE" catering="TRUE" selfservice="FALSE" coldstonesoftswirl="" kurig="TRUE" tassimo="FALSE"/><marker id="3691" storeid="913857" address1="Tops Market" address2="504 1/2 S Franklin St" city="Watkins Glen" lat="42.369644" lng="-76.867599" distance="224.713275090454" province="NY" postal="14891" phone="(607) 535-4064" timcard="FALSE" instoreseating="FALSE" hrs24="FALSE" coldstone="FALSE" wifi="FALSE" servicedisruptionflag="FALSE" drivethru="FALSE" doubledrivethru="FALSE" catering="FALSE" selfservice="FALSE" coldstonesoftswirl="" kurig="FALSE" tassimo="FALSE"/><marker id="3548" storeid="914409" address1="Delta Sonic Gas Station" address2="3720 Brewerton Rd." city="Syracuse" lat="43.117576" lng="-76.143666" distance="224.884353163988" province="NY" postal="13212" phone="(315) 455-5125" timcard="FALSE" instoreseating="TRUE" hrs24="FALSE" coldstone="FALSE" wifi="FALSE" servicedisruptionflag="FALSE" drivethru="FALSE" doubledrivethru="FALSE" catering="FALSE" selfservice="FALSE" coldstonesoftswirl="" kurig="FALSE" tassimo="FALSE"/><marker id="3671" storeid="913827" address1="Tim Hortons (Tops Market)" address2="3803 Brewerton Rd N" city="Syracuse" lat="43.119285" lng="-76.143691" distance="224.967166337626" province="NY" postal="13212" phone="(315) 458-0032" timcard="FALSE" instoreseating="FALSE" hrs24="FALSE" coldstone="FALSE" wifi="FALSE" servicedisruptionflag="FALSE" drivethru="FALSE" doubledrivethru="FALSE" catering="FALSE" selfservice="FALSE" coldstonesoftswirl="" kurig="FALSE" tassimo="FALSE"/><marker id="3932" storeid="913528" address1="" address2="3911 Brewerton Rd" city="Clay" lat="43.121198" lng="-76.142737" distance="225.024248458555" province="NY" postal="13212" phone="(315) 458-0357" timcard="TRUE" instoreseating="TRUE" hrs24="TRUE" coldstone="FALSE" wifi="TRUE" servicedisruptionflag="FALSE" drivethru="TRUE" doubledrivethru="FALSE" catering="TRUE" selfservice="FALSE" coldstonesoftswirl="" kurig="TRUE" tassimo="FALSE"/><marker id="3876" storeid="911063" address1="" address2="911 North Main St." city="North Syracuse" lat="43.138684" lng="-76.128517" distance="225.351024615584" province="NY" postal="13212" phone="(315) 458-2474" timcard="TRUE" instoreseating="TRUE" hrs24="FALSE" coldstone="FALSE" wifi="TRUE" servicedisruptionflag="FALSE" drivethru="TRUE" doubledrivethru="FALSE" catering="TRUE" selfservice="FALSE" coldstonesoftswirl="" kurig="TRUE" tassimo="FALSE"/><marker id="3668" storeid="913824" address1="Tim Hortons (Tops Market)" address2="5335 W Genesee St" city="Camillus" lat="43.041187" lng="-76.270963" distance="226.009986151261" province="NY" postal="13031" phone="(315) 487-0787" timcard="FALSE" instoreseating="FALSE" hrs24="FALSE" coldstone="FALSE" wifi="FALSE" servicedisruptionflag="FALSE" drivethru="FALSE" doubledrivethru="FALSE" catering="FALSE" selfservice="FALSE" coldstonesoftswirl="" kurig="FALSE" tassimo="FALSE"/><marker id="3869" storeid="911052" address1="Five Points Shopping Center" address2="Rt. 111" city="Biddeford" lat="43.492500" lng="-70.453903" distance="227.511863545413" province="ME" postal="4005" phone="(207) 282-5211" timcard="TRUE" instoreseating="TRUE" hrs24="TRUE" coldstone="FALSE" wifi="TRUE" servicedisruptionflag="FALSE" drivethru="TRUE" doubledrivethru="FALSE" catering="FALSE" selfservice="FALSE" coldstonesoftswirl="" kurig="TRUE" tassimo="FALSE"/><marker id="3676" storeid="913832" address1="Tim Hortons (Tops Market)" address2="40 Fennell St" city="Skaneateles" lat="42.948267" lng="-76.433241" distance="228.097670758915" province="NY" postal="13152" phone="(315) 685-7424" timcard="FALSE" instoreseating="FALSE" hrs24="FALSE" coldstone="FALSE" wifi="FALSE" servicedisruptionflag="FALSE" drivethru="FALSE" doubledrivethru="FALSE" catering="FALSE" selfservice="FALSE" coldstonesoftswirl="" kurig="FALSE" tassimo="FALSE"/><marker id="3733" storeid="914256" address1="CITGO" address2="2052 W Genesee Turnpike" city="Camillus" lat="43.034190" lng="-76.364530" distance="229.243709297441" province="NY" postal="13031" phone="(315) 672-3347" timcard="FALSE" instoreseating="FALSE" hrs24="FALSE" coldstone="FALSE" wifi="FALSE" servicedisruptionflag="FALSE" drivethru="FALSE" doubledrivethru="FALSE" catering="FALSE" selfservice="FALSE" coldstonesoftswirl="" kurig="FALSE" tassimo="FALSE"/><marker id="3577" storeid="913797" address1="Gas Station" address2="5600 Bartel Rd" city="Brewerton" lat="43.231802" lng="-76.131218" distance="229.987540381243" province="NY" postal="13029" phone="(315) 676-5629" timcard="TRUE" instoreseating="FALSE" hrs24="FALSE" coldstone="FALSE" wifi="FALSE" servicedisruptionflag="FALSE" drivethru="FALSE" doubledrivethru="FALSE" catering="TRUE" selfservice="FALSE" coldstonesoftswirl="" kurig="FALSE" tassimo="FALSE"/><marker id="3678" storeid="913834" address1="Tops Market" address2="8417 Oswego Rd" city="Clay" lat="43.178423" lng="-76.257473" distance="231.936213057954" province="NY" postal="13027" phone="" timcard="FALSE" instoreseating="FALSE" hrs24="FALSE" coldstone="FALSE" wifi="FALSE" servicedisruptionflag="FALSE" drivethru="FALSE" doubledrivethru="FALSE" catering="FALSE" selfservice="FALSE" coldstonesoftswirl="" kurig="FALSE" tassimo="FALSE"/><marker id="3898" storeid="911117" address1="Tim Hortons and Cold Stone Creamery" address2="160 Grant Avenue" city="Auburn" lat="42.944596" lng="-76.550717" distance="232.588763347757" province="NY" postal="13021" phone="(315) 258-0430" timcard="TRUE" instoreseating="TRUE" hrs24="TRUE" coldstone="TRUE" wifi="TRUE" servicedisruptionflag="FALSE" drivethru="TRUE" doubledrivethru="FALSE" catering="TRUE" selfservice="FALSE" coldstonesoftswirl="" kurig="TRUE" tassimo="FALSE"/><marker id="3587" storeid="911159" address1="Tim Hortons (Tops Market)" address2="352 Genesee Street" city="Auburn" lat="42.919394" lng="-76.591667" distance="233.165092864256" province="NY" postal="13021" phone="(315) 252-7995" timcard="FALSE" instoreseating="FALSE" hrs24="FALSE" coldstone="FALSE" wifi="FALSE" servicedisruptionflag="FALSE" drivethru="FALSE" doubledrivethru="FALSE" catering="FALSE" selfservice="FALSE" coldstonesoftswirl="" kurig="FALSE" tassimo="FALSE"/><marker id="3740" storeid="914611" address1="Gas Station" address2="682 North Main St." city="Central Square" lat="43.287730" lng="-76.146864" distance="233.303049424922" province="NY" postal="13036" phone="(315) 668-9846" timcard="FALSE" instoreseating="FALSE" hrs24="FALSE" coldstone="FALSE" wifi="FALSE" servicedisruptionflag="FALSE" drivethru="FALSE" doubledrivethru="FALSE" catering="FALSE" selfservice="FALSE" coldstonesoftswirl="" kurig="FALSE" tassimo="FALSE"/><marker id="3965" storeid="914301" address1="Tim Hortons and Cold Stone Creamery" address2="3610 St. Rt. 31" city="Baldwinsville" lat="43.158679" lng="-76.332709" distance="233.77088984796" province="NY" postal="13027" phone="(315) 622-4278" timcard="TRUE" instoreseating="TRUE" hrs24="TRUE" coldstone="TRUE" wifi="FALSE" servicedisruptionflag="FALSE" drivethru="TRUE" doubledrivethru="FALSE" catering="TRUE" selfservice="FALSE" coldstonesoftswirl="" kurig="TRUE" tassimo="FALSE"/><marker id="3667" storeid="913823" address1="Tim Horton (Tops Market)" address2=" 2265 Downer St" city="Baldwinsville" lat="43.151991" lng="-76.349901" distance="234.096938952691" province="NY" postal="13027" phone="(315) 635-3536" timcard="FALSE" instoreseating="FALSE" hrs24="FALSE" coldstone="FALSE" wifi="FALSE" servicedisruptionflag="FALSE" drivethru="FALSE" doubledrivethru="FALSE" catering="FALSE" selfservice="FALSE" coldstonesoftswirl="" kurig="FALSE" tassimo="FALSE"/><marker id="3737" storeid="914263" address1="Gas Station" address2="28 St. RT 11" city="Central Square" lat="43.275549" lng="-76.210817" distance="234.953612030073" province="NY" postal="13036" phone="(315) 676-4902" timcard="FALSE" instoreseating="FALSE" hrs24="FALSE" coldstone="FALSE" wifi="FALSE" servicedisruptionflag="FALSE" drivethru="FALSE" doubledrivethru="FALSE" catering="FALSE" selfservice="FALSE" coldstonesoftswirl="" kurig="FALSE" tassimo="FALSE"/><marker id="4161" storeid="919365" address1="Tim Hortons and Cold Stone Creamery" address2="398 US Route 1" city="Scarborough" lat="43.586800" lng="-70.352299" distance="235.777344960411" province="ME" postal="4074" phone="(207) 885-1330" timcard="TRUE" instoreseating="TRUE" hrs24="FALSE" coldstone="TRUE" wifi="TRUE" servicedisruptionflag="FALSE" drivethru="TRUE" doubledrivethru="FALSE" catering="FALSE" selfservice="FALSE" coldstonesoftswirl="" kurig="TRUE" tassimo="FALSE"/><marker id="3477" storeid="914298" address1="Tim Hortons in Arbys" address2="2767 Route 31" city="Weedsport" lat="43.056107" lng="-76.557324" distance="237.667135555853" province="NY" postal="13166" phone="(315) 834-8681" timcard="TRUE" instoreseating="TRUE" hrs24="FALSE" coldstone="FALSE" wifi="FALSE" servicedisruptionflag="FALSE" drivethru="TRUE" doubledrivethru="FALSE" catering="FALSE" selfservice="FALSE" coldstonesoftswirl="" kurig="FALSE" tassimo="FALSE"/><marker id="4063" storeid="915746" address1="Tim Hortons and Cold Stone Creamery" address2="291 Maine Mall" city="South Portland" lat="43.634552" lng="-70.337377" distance="238.873180624114" province="ME" postal="4106" phone="(207) 774-1555" timcard="TRUE" instoreseating="TRUE" hrs24="TRUE" coldstone="TRUE" wifi="TRUE" servicedisruptionflag="FALSE" drivethru="TRUE" doubledrivethru="FALSE" catering="TRUE" selfservice="FALSE" coldstonesoftswirl="" kurig="TRUE" tassimo="FALSE"/><marker id="3682" storeid="913838" address1="Tim Hortons (Tops Market)" address2="7395 Turrin Rd" city="Lowville" lat="43.777600" lng="-75.483500" distance="239.453369882325" province="NY" postal="16508" phone="(315) 376-6311" timcard="FALSE" instoreseating="FALSE" hrs24="FALSE" coldstone="FALSE" wifi="FALSE" servicedisruptionflag="FALSE" drivethru="FALSE" doubledrivethru="FALSE" catering="FALSE" selfservice="FALSE" coldstonesoftswirl="" kurig="FALSE" tassimo="FALSE"/><marker id="3491" storeid="911055" address1="Tim Hortons and Cold Stone Creamery" address2="1412 Congress Street" city="Portland" lat="43.658923" lng="-70.297794" distance="241.403580334932" province="ME" postal="4102" phone="(207) 775-1519" timcard="TRUE" instoreseating="FALSE" hrs24="FALSE" coldstone="TRUE" wifi="TRUE" servicedisruptionflag="FALSE" drivethru="FALSE" doubledrivethru="FALSE" catering="FALSE" selfservice="FALSE" coldstonesoftswirl="" kurig="TRUE" tassimo="FALSE"/><marker id="4081" storeid="917480" address1="" address2="50 Market St" city="South Portland" lat="43.635856" lng="-70.254123" distance="241.438579036349" province="ME" postal="4106" phone="(207) 899-3490" timcard="TRUE" instoreseating="TRUE" hrs24="FALSE" coldstone="FALSE" wifi="TRUE" servicedisruptionflag="FALSE" drivethru="TRUE" doubledrivethru="FALSE" catering="FALSE" selfservice="FALSE" coldstonesoftswirl="" kurig="TRUE" tassimo="FALSE"/><marker id="3687" storeid="913853" address1="Tim Hortons (Tops Market)" address2="1963 Kingdom Plaza" city="Waterloo" lat="42.904408" lng="-76.834273" distance="242.453986827274" province="NY" postal="13165" phone="" timcard="FALSE" instoreseating="FALSE" hrs24="TRUE" coldstone="FALSE" wifi="FALSE" servicedisruptionflag="FALSE" drivethru="FALSE" doubledrivethru="FALSE" catering="FALSE" selfservice="FALSE" coldstonesoftswirl="" kurig="FALSE" tassimo="FALSE"/><marker id="3688" storeid="913854" address1="Tops Market" address2="321 Liberty St" city="Penn Yan" lat="42.661450" lng="-77.056664" distance="242.860595611456" province="NY" postal="14527" phone="(315) 536-2508" timcard="FALSE" instoreseating="FALSE" hrs24="TRUE" coldstone="FALSE" wifi="FALSE" servicedisruptionflag="FALSE" drivethru="FALSE" doubledrivethru="FALSE" catering="FALSE" selfservice="FALSE" coldstonesoftswirl="" kurig="FALSE" tassimo="FALSE"/><marker id="3478" storeid="914299" address1="" address2="222 S. Second St. " city="Fulton" lat="43.319178" lng="-76.413680" distance="244.340416489532" province="NY" postal="13069" phone="(315) 592-4840" timcard="TRUE" instoreseating="FALSE" hrs24="FALSE" coldstone="FALSE" wifi="FALSE" servicedisruptionflag="FALSE" drivethru="TRUE" doubledrivethru="FALSE" catering="FALSE" selfservice="FALSE" coldstonesoftswirl="" kurig="FALSE" tassimo="FALSE"/><marker id="3717" storeid="914234" address1="Gas Station" address2="2969 SR 49 Central Square" city="Oswego" lat="43.287423" lng="-76.471230" distance="244.933536177311" province="NY" postal="13036" phone="" timcard="FALSE" instoreseating="FALSE" hrs24="TRUE" coldstone="FALSE" wifi="FALSE" servicedisruptionflag="FALSE" drivethru="FALSE" doubledrivethru="FALSE" catering="FALSE" selfservice="FALSE" coldstonesoftswirl="" kurig="FALSE" tassimo="FALSE"/><marker id="3647" storeid="911230" address1="Tim Hortons (Tops Market)" address2="309 West Morris Street" city="Bath" lat="42.336238" lng="-77.329635" distance="245.007334833821" province="NY" postal="14810" phone="(607) 776-1015" timcard="FALSE" instoreseating="FALSE" hrs24="TRUE" coldstone="FALSE" wifi="FALSE" servicedisruptionflag="FALSE" drivethru="FALSE" doubledrivethru="FALSE" catering="FALSE" selfservice="FALSE" coldstonesoftswirl="" kurig="FALSE" tassimo="FALSE"/><marker id="3683" storeid="913839" address1="Tim Hortons (Tops Market)" address2="3830 Rome Rd" city="Pulaski" lat="43.557940" lng="-76.118400" distance="246.130780469855" province="NY" postal="13142" phone="(315) 298-1081" timcard="FALSE" instoreseating="FALSE" hrs24="FALSE" coldstone="FALSE" wifi="FALSE" servicedisruptionflag="FALSE" drivethru="FALSE" doubledrivethru="FALSE" catering="FALSE" selfservice="FALSE" coldstonesoftswirl="" kurig="FALSE" tassimo="FALSE"/><marker id="4174" storeid="919382" address1="Tim Hortons and Cold Stone Creamery" address2="451 Hamilton Road" city="Geneva" lat="42.857340" lng="-77.002070" distance="247.643866848321" province="NY" postal="14456" phone="(315) 781-9120" timcard="TRUE" instoreseating="TRUE" hrs24="TRUE" coldstone="TRUE" wifi="TRUE" servicedisruptionflag="FALSE" drivethru="TRUE" doubledrivethru="FALSE" catering="FALSE" selfservice="FALSE" coldstonesoftswirl="" kurig="TRUE" tassimo="FALSE"/><marker id="3459" storeid="914417" address1="Penn State University" address2="North University Drive &amp; East Park Avenue" city="University Park" lat="40.810183" lng="-77.862127" distance="251.866301643407" province="PA" postal="16802" phone="" timcard="FALSE" instoreseating="FALSE" hrs24="FALSE" coldstone="FALSE" wifi="FALSE" servicedisruptionflag="FALSE" drivethru="FALSE" doubledrivethru="FALSE" catering="FALSE" selfservice="FALSE" coldstonesoftswirl="" kurig="FALSE" tassimo="FALSE"/><marker id="3824" storeid="910892" address1="Tim Hortons and Cold Stone Creamery" address2="200 East First Street" city="Oswego" lat="43.454229" lng="-76.505870" distance="254.167313889105" province="NY" postal="13126" phone="(315) 207-0250" timcard="TRUE" instoreseating="TRUE" hrs24="TRUE" coldstone="TRUE" wifi="TRUE" servicedisruptionflag="FALSE" drivethru="TRUE" doubledrivethru="FALSE" catering="FALSE" selfservice="FALSE" coldstonesoftswirl="" kurig="TRUE" tassimo="FALSE"/><marker id="4332" storeid="914592" address1="SUNY Oswego Campus Center Ice Arena" address2="7060 Route 104" city="Oswego" lat="43.451831" lng="-76.544149" distance="255.4226777143" province="NY" postal="13126" phone="" timcard="FALSE" instoreseating="FALSE" hrs24="FALSE" coldstone="FALSE" wifi="FALSE" servicedisruptionflag="FALSE" drivethru="FALSE" doubledrivethru="FALSE" catering="FALSE" selfservice="FALSE" coldstonesoftswirl="" kurig="FALSE" tassimo="FALSE"/><marker id="3796" storeid="910855" address1="" address2="821 W. Union St" city="Newark" lat="43.046948" lng="-77.113473" distance="259.665389870669" province="NY" postal="14513" phone="(315) 332-0106" timcard="TRUE" instoreseating="TRUE" hrs24="FALSE" coldstone="FALSE" wifi="FALSE" servicedisruptionflag="FALSE" drivethru="TRUE" doubledrivethru="FALSE" catering="FALSE" selfservice="FALSE" coldstonesoftswirl="" kurig="TRUE" tassimo="FALSE"/><marker id="4176" storeid="919384" address1="" address2="10 Booth Street" city="Canandaigua" lat="42.877916" lng="-77.268592" distance="259.785121564844" province="NY" postal="14424" phone="(585) 394-8530" timcard="TRUE" instoreseating="TRUE" hrs24="FALSE" coldstone="FALSE" wifi="FALSE" servicedisruptionflag="FALSE" drivethru="TRUE" doubledrivethru="FALSE" catering="FALSE" selfservice="FALSE" coldstonesoftswirl="" kurig="TRUE" tassimo="FALSE"/><marker id="4121" storeid="919013" address1="Tim Hortons (Tops Market)" address2="5150 North St." city="Canandaigua" lat="42.906275" lng="-77.291243" distance="261.794154498842" province="NY" postal="14424" phone="(585) 394-2510" timcard="TRUE" instoreseating="TRUE" hrs24="FALSE" coldstone="FALSE" wifi="TRUE" servicedisruptionflag="FALSE" drivethru="TRUE" doubledrivethru="FALSE" catering="TRUE" selfservice="FALSE" coldstonesoftswirl="" kurig="TRUE" tassimo="FALSE"/><marker id="3644" storeid="911227" address1="Tops" address2="5150 North Street" city="Canandaigua" lat="42.904360" lng="-77.297260" distance="261.982397631387" province="NY" postal="14424" phone="(585) 394-5120" timcard="FALSE" instoreseating="FALSE" hrs24="TRUE" coldstone="FALSE" wifi="FALSE" servicedisruptionflag="FALSE" drivethru="FALSE" doubledrivethru="FALSE" catering="FALSE" selfservice="FALSE" coldstonesoftswirl="" kurig="FALSE" tassimo="FALSE"/><marker id="3698" storeid="913892" address1="Tops" address2="22050 Seaway Shopping Center" city="Watertown" lat="43.974780" lng="-75.910760" distance="262.564704852473" province="NY" postal="13601" phone="(315) 788-7330" timcard="FALSE" instoreseating="FALSE" hrs24="FALSE" coldstone="FALSE" wifi="FALSE" servicedisruptionflag="FALSE" drivethru="FALSE" doubledrivethru="FALSE" catering="FALSE" selfservice="FALSE" coldstonesoftswirl="" kurig="FALSE" tassimo="FALSE"/><marker id="4342" storeid="915380" address1="" address2="21306 New York rt 12F" city="Watertown" lat="43.989256" lng="-75.946821" distance="264.411213869084" province="NY" postal="13601" phone="" timcard="TRUE" instoreseating="TRUE" hrs24="TRUE" coldstone="FALSE" wifi="TRUE" servicedisruptionflag="FALSE" drivethru="TRUE" doubledrivethru="FALSE" catering="FALSE" selfservice="FALSE" coldstonesoftswirl="" kurig="FALSE" tassimo="FALSE"/><marker id="3870" storeid="911053" address1="" address2="147 Pleasant Street" city="Brunswick" lat="43.912453" lng="-69.985085" distance="264.777676892987" province="ME" postal="4011" phone="(207) 725-7813" timcard="TRUE" instoreseating="TRUE" hrs24="TRUE" coldstone="FALSE" wifi="TRUE" servicedisruptionflag="FALSE" drivethru="TRUE" doubledrivethru="FALSE" catering="TRUE" selfservice="FALSE" coldstonesoftswirl="" kurig="TRUE" tassimo="FALSE"/><marker id="3909" storeid="911151" address1="" address2="5 Horton Place" city="Topsham" lat="43.927502" lng="-69.976402" distance="265.867392431182" province="ME" postal="4086" phone="(207) 729-1262" timcard="TRUE" instoreseating="TRUE" hrs24="TRUE" coldstone="FALSE" wifi="TRUE" servicedisruptionflag="FALSE" drivethru="TRUE" doubledrivethru="FALSE" catering="TRUE" selfservice="FALSE" coldstonesoftswirl="" kurig="TRUE" tassimo="FALSE"/><marker id="3539" storeid="914164" address1="Casino" address2="5857 Route 96" city="Farmington" lat="42.974423" lng="-77.339674" distance="266.380381027157" province="NY" postal="14425" phone="" timcard="FALSE" instoreseating="FALSE" hrs24="FALSE" coldstone="FALSE" wifi="FALSE" servicedisruptionflag="FALSE" drivethru="FALSE" doubledrivethru="FALSE" catering="FALSE" selfservice="FALSE" coldstonesoftswirl="" kurig="FALSE" tassimo="FALSE"/><marker id="3799" storeid="910859" address1="" address2="848 Minot Avenue" city="Auburn" lat="44.081467" lng="-70.262658" distance="266.380883256211" province="ME" postal="4210" phone="(207) 753-6773" timcard="TRUE" instoreseating="TRUE" hrs24="FALSE" coldstone="FALSE" wifi="TRUE" servicedisruptionflag="FALSE" drivethru="TRUE" doubledrivethru="FALSE" catering="FALSE" selfservice="FALSE" coldstonesoftswirl="" kurig="TRUE" tassimo="FALSE"/><marker id="3844" storeid="911003" address1="" address2="60 Fair Street" city="Norway" lat="44.210801" lng="-70.529621" distance="267.134979991211" province="ME" postal="4268" phone="(207) 743-1957" timcard="TRUE" instoreseating="TRUE" hrs24="FALSE" coldstone="FALSE" wifi="TRUE" servicedisruptionflag="FALSE" drivethru="TRUE" doubledrivethru="FALSE" catering="FALSE" selfservice="FALSE" coldstonesoftswirl="" kurig="TRUE" tassimo="FALSE"/><marker id="4049" storeid="915720" address1="Tim Hortons and Cold Stone Creamery" address2="855 Lisbon St." city="Lewiston" lat="44.082471" lng="-70.199365" distance="268.169229129407" province="ME" postal="4240" phone="(207) 795-1364" timcard="TRUE" instoreseating="TRUE" hrs24="FALSE" coldstone="TRUE" wifi="TRUE" servicedisruptionflag="FALSE" drivethru="TRUE" doubledrivethru="FALSE" catering="FALSE" selfservice="FALSE" coldstonesoftswirl="" kurig="TRUE" tassimo="FALSE"/><marker id="3624" storeid="911203" address1="Tim Hortons (Tops Market)" address2="35 Franklin Plaza" city="Dansville" lat="42.562131" lng="-77.700467" distance="268.686526174606" province="NY" postal="14437" phone="(585) 335-2140" timcard="FALSE" instoreseating="FALSE" hrs24="TRUE" coldstone="FALSE" wifi="FALSE" servicedisruptionflag="FALSE" drivethru="FALSE" doubledrivethru="FALSE" catering="FALSE" selfservice="FALSE" coldstonesoftswirl="" kurig="FALSE" tassimo="FALSE"/><marker id="3496" storeid="911143" address1="Plattsburgh State University" address2="101 Broad Street" city="Plattsburgh" lat="44.695098" lng="-73.465750" distance="268.749874281476" province="NY" postal="12901" phone="(518) 564-5282" timcard="FALSE" instoreseating="FALSE" hrs24="FALSE" coldstone="FALSE" wifi="FALSE" servicedisruptionflag="FALSE" drivethru="FALSE" doubledrivethru="FALSE" catering="FALSE" selfservice="FALSE" coldstonesoftswirl="" kurig="FALSE" tassimo="FALSE"/><marker id="3784" storeid="910738" address1="" address2="458 Center Street" city="Auburn" lat="44.117885" lng="-70.225029" distance="269.508779352736" province="ME" postal="4210" phone="(207) 753-0014" timcard="TRUE" instoreseating="TRUE" hrs24="TRUE" coldstone="FALSE" wifi="TRUE" servicedisruptionflag="FALSE" drivethru="TRUE" doubledrivethru="FALSE" catering="FALSE" selfservice="FALSE" coldstonesoftswirl="" kurig="TRUE" tassimo="FALSE"/><marker id="3807" storeid="910870" address1="" address2="736 Sabattus Street" city="Lewiston" lat="44.102999" lng="-70.177220" distance="269.95916240626" province="ME" postal="4240" phone="(207) 753-0176" timcard="TRUE" instoreseating="TRUE" hrs24="FALSE" coldstone="FALSE" wifi="TRUE" servicedisruptionflag="FALSE" drivethru="TRUE" doubledrivethru="FALSE" catering="FALSE" selfservice="FALSE" coldstonesoftswirl="" kurig="TRUE" tassimo="FALSE"/><marker id="4173" storeid="919381" address1="" address2="260 West Main Street" city="Victor" lat="42.986532" lng="-77.418026" distance="270.173418913142" province="NY" postal="14564" phone="(585) 924-2370" timcard="TRUE" instoreseating="TRUE" hrs24="FALSE" coldstone="FALSE" wifi="TRUE" servicedisruptionflag="FALSE" drivethru="TRUE" doubledrivethru="FALSE" catering="FALSE" selfservice="FALSE" coldstonesoftswirl="" kurig="TRUE" tassimo="FALSE"/><marker id="3584" storeid="911156" address1="Tim Hortons (Tops Market)" address2="111 Bolivar Road" city="Wellsville" lat="42.127130" lng="-77.964864" distance="270.23798561747" province="NY" postal="14895" phone="(585) 593-0166" timcard="FALSE" instoreseating="FALSE" hrs24="FALSE" coldstone="FALSE" wifi="FALSE" servicedisruptionflag="FALSE" drivethru="FALSE" doubledrivethru="FALSE" catering="FALSE" selfservice="FALSE" coldstonesoftswirl="" kurig="FALSE" tassimo="FALSE"/><marker id="4196" storeid="910995" address1="Seneca Travel Plaza" address2="7029 Aldridge Rd" city="Victor" lat="42.998747" lng="-77.413101" distance="270.413922862198" province="NY" postal="14564" phone="(585) 924-3636" timcard="FALSE" instoreseating="TRUE" hrs24="TRUE" coldstone="FALSE" wifi="FALSE" servicedisruptionflag="FALSE" drivethru="FALSE" doubledrivethru="FALSE" catering="FALSE" selfservice="FALSE" coldstonesoftswirl="" kurig="FALSE" tassimo="FALSE"/><marker id="3650" storeid="911234" address1="Tim Hortons (Tops Market)" address2="6272 Furnace Road" city="Ontario" lat="43.226685" lng="-77.282485" distance="273.815428046139" province="NY" postal="14519" phone="(315) 524-3550" timcard="FALSE" instoreseating="FALSE" hrs24="TRUE" coldstone="FALSE" wifi="FALSE" servicedisruptionflag="FALSE" drivethru="FALSE" doubledrivethru="FALSE" catering="FALSE" selfservice="FALSE" coldstonesoftswirl="" kurig="FALSE" tassimo="FALSE"/><marker id="3635" storeid="911215" address1="Tim Hortons (Tops Market)" address2="6720 Pittsford/Palmyra Road" city="Fairport" lat="43.069255" lng="-77.441988" distance="274.275023892157" province="NY" postal="14450" phone="(585) 264-0820" timcard="FALSE" instoreseating="FALSE" hrs24="TRUE" coldstone="FALSE" wifi="FALSE" servicedisruptionflag="FALSE" drivethru="FALSE" doubledrivethru="FALSE" catering="FALSE" selfservice="FALSE" coldstonesoftswirl="" kurig="FALSE" tassimo="FALSE"/><marker id="3873" storeid="911059" address1="" address2="720 Pittsford Victor Road" city="Pittsford" lat="43.060278" lng="-77.475253" distance="275.348070417357" province="NY" postal="14534" phone="(585) 385-7549" timcard="TRUE" instoreseating="TRUE" hrs24="TRUE" coldstone="FALSE" wifi="FALSE" servicedisruptionflag="FALSE" drivethru="TRUE" doubledrivethru="FALSE" catering="FALSE" selfservice="FALSE" coldstonesoftswirl="" kurig="TRUE" tassimo="FALSE"/><marker id="4120" storeid="919012" address1="Tim Hortons and Cold Stone Creamery" address2="908 Fairport Road" city="East Rochester" lat="43.099588" lng="-77.458099" distance="276.102789573565" province="NY" postal="14445" phone="(585) 586-8350" timcard="TRUE" instoreseating="TRUE" hrs24="FALSE" coldstone="TRUE" wifi="TRUE" servicedisruptionflag="FALSE" drivethru="TRUE" doubledrivethru="FALSE" catering="FALSE" selfservice="FALSE" coldstonesoftswirl="" kurig="TRUE" tassimo="FALSE"/><marker id="4308" storeid="914866" address1="" address2="2230 Penfield Road" city="Penfield" lat="43.131486" lng="-77.436664" distance="276.421127015769" province="NY" postal="14526" phone="" timcard="TRUE" instoreseating="TRUE" hrs24="TRUE" coldstone="FALSE" wifi="TRUE" servicedisruptionflag="FALSE" drivethru="TRUE" doubledrivethru="FALSE" catering="FALSE" selfservice="FALSE" coldstonesoftswirl="" kurig="TRUE" tassimo="FALSE"/><marker id="3789" storeid="910770" address1="" address2="447 W. Commercial" city="East Rochester" lat="43.115915" lng="-77.495888" distance="278.315483209222" province="NY" postal="14445" phone="(585) 586-8580" timcard="TRUE" instoreseating="TRUE" hrs24="FALSE" coldstone="FALSE" wifi="FALSE" servicedisruptionflag="FALSE" drivethru="TRUE" doubledrivethru="FALSE" catering="FALSE" selfservice="FALSE" coldstonesoftswirl="" kurig="TRUE" tassimo="FALSE"/><marker id="3744" storeid="914620" address1="Beverages only - Self-Serve" address2="1660 Penfield Rd" city="Penfield" lat="43.132568" lng="-77.490310" distance="278.713863353435" province="NY" postal="14526" phone="(585) 381-8675" timcard="FALSE" instoreseating="FALSE" hrs24="FALSE" coldstone="FALSE" wifi="FALSE" servicedisruptionflag="FALSE" drivethru="FALSE" doubledrivethru="FALSE" catering="FALSE" selfservice="FALSE" coldstonesoftswirl="" kurig="FALSE" tassimo="FALSE"/><marker id="3503" storeid="911213" address1="Tops Market" address2="1601 Penfield Road" city="Rochester" lat="43.135133" lng="-77.498484" distance="279.155395357445" province="NY" postal="14625" phone="(585) 264-0820" timcard="FALSE" instoreseating="FALSE" hrs24="FALSE" coldstone="FALSE" wifi="FALSE" servicedisruptionflag="FALSE" drivethru="FALSE" doubledrivethru="FALSE" catering="FALSE" selfservice="FALSE" coldstonesoftswirl="" kurig="FALSE" tassimo="FALSE"/><marker id="3782" storeid="910736" address1="" address2="1 Ryan Drive" city="Geneseo" lat="42.797800" lng="-77.787029" distance="279.862240220901" province="NY" postal="14454" phone="(585) 243-0160" timcard="TRUE" instoreseating="TRUE" hrs24="FALSE" coldstone="FALSE" wifi="TRUE" servicedisruptionflag="FALSE" drivethru="TRUE" doubledrivethru="FALSE" catering="FALSE" selfservice="FALSE" coldstonesoftswirl="" kurig="TRUE" tassimo="FALSE"/><marker id="4313" storeid="915242" address1="" address2="819 Ridge Road, Webster" city="Monroe" lat="43.204602" lng="-77.475167" distance="280.862751563019" province="NY" postal="14580" phone="(585) 670-0025" timcard="TRUE" instoreseating="TRUE" hrs24="FALSE" coldstone="FALSE" wifi="TRUE" servicedisruptionflag="FALSE" drivethru="TRUE" doubledrivethru="FALSE" catering="FALSE" selfservice="FALSE" coldstonesoftswirl="" kurig="FALSE" tassimo="FALSE"/><marker id="3764" storeid="910708" address1="" address2="1580 Jefferson Road" city="Henrietta" lat="43.087144" lng="-77.582912" distance="280.927030716309" province="NY" postal="14623" phone="(585) 424-4480" timcard="TRUE" instoreseating="TRUE" hrs24="TRUE" coldstone="FALSE" wifi="TRUE" servicedisruptionflag="FALSE" drivethru="TRUE" doubledrivethru="FALSE" catering="TRUE" selfservice="FALSE" coldstonesoftswirl="" kurig="TRUE" tassimo="FALSE"/><marker id="3623" storeid="911202" address1="Tim Hortons (Tops Market)" address2="270 East Main Street" city="Avon" lat="42.910168" lng="-77.733494" distance="281.184848014646" province="NY" postal="14414" phone="(585) 226-2730" timcard="FALSE" instoreseating="FALSE" hrs24="TRUE" coldstone="FALSE" wifi="FALSE" servicedisruptionflag="FALSE" drivethru="FALSE" doubledrivethru="FALSE" catering="FALSE" selfservice="FALSE" coldstonesoftswirl="" kurig="FALSE" tassimo="FALSE"/><marker id="4140" storeid="919340" address1="Tim Hortons and Cold Stone Creamery" address2="1786 Empire Blvd" city="Penfield" lat="43.187224" lng="-77.505322" distance="281.442562067797" province="NY" postal="14580" phone="(585) 671-7485" timcard="TRUE" instoreseating="TRUE" hrs24="TRUE" coldstone="TRUE" wifi="TRUE" servicedisruptionflag="FALSE" drivethru="TRUE" doubledrivethru="FALSE" catering="FALSE" selfservice="FALSE" coldstonesoftswirl="" kurig="TRUE" tassimo="FALSE"/><marker id="3633" storeid="911212" address1="Tim Hortons (Tops Market)" address2="1100 Jefferson Road" city="Henrietta" lat="43.087236" lng="-77.606540" distance="281.938123476901" province="NY" postal="14623" phone="(585) 427-9980" timcard="FALSE" instoreseating="FALSE" hrs24="TRUE" coldstone="FALSE" wifi="FALSE" servicedisruptionflag="FALSE" drivethru="FALSE" doubledrivethru="FALSE" catering="FALSE" selfservice="FALSE" coldstonesoftswirl="" kurig="FALSE" tassimo="FALSE"/><marker id="3631" storeid="911210" address1="Tim Hortons (Tops Market)" address2="175 North Winton Road" city="Rochester" lat="43.149023" lng="-77.553366" distance="281.993875955314" province="NY" postal="14610" phone="(585) 288-7850" timcard="FALSE" instoreseating="FALSE" hrs24="FALSE" coldstone="FALSE" wifi="FALSE" servicedisruptionflag="FALSE" drivethru="FALSE" doubledrivethru="FALSE" catering="FALSE" selfservice="FALSE" coldstonesoftswirl="" kurig="FALSE" tassimo="FALSE"/><marker id="3757" storeid="914861" address1="Gas Station" address2="217 N Winton Rd. " city="Rochester" lat="43.149667" lng="-77.553011" distance="282.003352963601" province="NY" postal="14610" phone="(585) 697-1736" timcard="FALSE" instoreseating="FALSE" hrs24="FALSE" coldstone="FALSE" wifi="FALSE" servicedisruptionflag="FALSE" drivethru="FALSE" doubledrivethru="FALSE" catering="FALSE" selfservice="FALSE" coldstonesoftswirl="" kurig="FALSE" tassimo="FALSE"/><marker id="3473" storeid="911008" address1="" address2="375 Kenneth Drive" city="Rochester" lat="43.059287" lng="-77.644310" distance="282.533349578038" province="NY" postal="14623" phone="(585) 334-6923" timcard="TRUE" instoreseating="FALSE" hrs24="TRUE" coldstone="FALSE" wifi="FALSE" servicedisruptionflag="FALSE" drivethru="TRUE" doubledrivethru="FALSE" catering="FALSE" selfservice="FALSE" coldstonesoftswirl="" kurig="FALSE" tassimo="FALSE"/><marker id="3632" storeid="911211" address1="Tops" address2="1900 Clinton Ave S" city="Rochester" lat="43.120710" lng="-77.593020" distance="282.604832906721" province="NY" postal="14618" phone="(585) 442-2990" timcard="FALSE" instoreseating="FALSE" hrs24="TRUE" coldstone="FALSE" wifi="FALSE" servicedisruptionflag="FALSE" drivethru="FALSE" doubledrivethru="FALSE" catering="FALSE" selfservice="FALSE" coldstonesoftswirl="" kurig="FALSE" tassimo="FALSE"/><marker id="3941" storeid="913777" address1="" address2="1250 University Ave" city="Rochester" lat="43.151127" lng="-77.569194" distance="282.74079856165" province="NY" postal="14607" phone="(585) 244-0940" timcard="TRUE" instoreseating="TRUE" hrs24="TRUE" coldstone="FALSE" wifi="TRUE" servicedisruptionflag="FALSE" drivethru="FALSE" doubledrivethru="FALSE" catering="FALSE" selfservice="FALSE" coldstonesoftswirl="" kurig="TRUE" tassimo="FALSE"/><marker id="4079" storeid="917478" address1="Tim Hortons (Tops Market)" address2="4760 W Henrietta Rd" city="Henrietta" lat="43.058365" lng="-77.652217" distance="282.839747691825" province="NY" postal="14467" phone="(585) 334-3790" timcard="TRUE" instoreseating="TRUE" hrs24="FALSE" coldstone="FALSE" wifi="FALSE" servicedisruptionflag="FALSE" drivethru="TRUE" doubledrivethru="FALSE" catering="TRUE" selfservice="FALSE" coldstonesoftswirl="" kurig="TRUE" tassimo="FALSE"/><marker id="4128" storeid="919021" address1="Tim Hortons and Cold Stone Creamery" address2="607 Jefferson Rd." city="Rochester" lat="43.087000" lng="-77.628443" distance="282.865016691824" province="NY" postal="14623" phone="(585) 427-0670" timcard="TRUE" instoreseating="TRUE" hrs24="FALSE" coldstone="TRUE" wifi="TRUE" servicedisruptionflag="FALSE" drivethru="TRUE" doubledrivethru="FALSE" catering="TRUE" selfservice="FALSE" coldstonesoftswirl="" kurig="TRUE" tassimo="FALSE"/><marker id="3747" storeid="914625" address1="Beverages only - Self-Serve" address2="2970 W Henrietta Rd" city="Henrietta" lat="43.092730" lng="-77.632855" distance="283.264102000781" province="NY" postal="14620" phone="(585) 427-0520" timcard="TRUE" instoreseating="FALSE" hrs24="FALSE" coldstone="FALSE" wifi="FALSE" servicedisruptionflag="FALSE" drivethru="FALSE" doubledrivethru="FALSE" catering="FALSE" selfservice="FALSE" coldstonesoftswirl="" kurig="FALSE" tassimo="FALSE"/><marker id="3536" storeid="914144" address1="" address2="44 Pierrepont Ave" city="Potsdam" lat="44.664250" lng="-74.978960" distance="283.284680933675" province="NY" postal="13676" phone="(315) 267-2652" timcard="FALSE" instoreseating="TRUE" hrs24="FALSE" coldstone="FALSE" wifi="FALSE" servicedisruptionflag="FALSE" drivethru="FALSE" doubledrivethru="FALSE" catering="FALSE" selfservice="FALSE" coldstonesoftswirl="" kurig="FALSE" tassimo="FALSE"/><marker id="4229" storeid="914619" address1="" address2="2190 E Henrietta Rd" city="Henrietta" lat="43.116436" lng="-77.616924" distance="283.461101143557" province="NY" postal="14467" phone="(585) 321-1673" timcard="TRUE" instoreseating="TRUE" hrs24="FALSE" coldstone="FALSE" wifi="TRUE" servicedisruptionflag="FALSE" drivethru="TRUE" doubledrivethru="FALSE" catering="FALSE" selfservice="FALSE" coldstonesoftswirl="" kurig="TRUE" tassimo="FALSE"/><marker id="3467" storeid="913806" address1="Tim Hortons and Cold Stone Creamery" address2="1286 Mt Hope Ave" city="Rochester" lat="43.125008" lng="-77.617300" distance="283.795944816128" province="NY" postal="14620" phone="(585) 271-1260 " timcard="TRUE" instoreseating="TRUE" hrs24="FALSE" coldstone="TRUE" wifi="FALSE" servicedisruptionflag="FALSE" doubledrivethru="TRUE" drivethru="FALSE" catering="TRUE" selfservice="FALSE" coldstonesoftswirl="" kurig="TRUE" tassimo="FALSE"/><marker id="3746" storeid="914623" address1="Beverages only - Self-Serve" address2="718 E Main St" city="Rochester" lat="43.160263" lng="-77.593024" distance="284.091564317287" province="NY" postal="14604" phone="(585) 232-4418" timcard="TRUE" instoreseating="FALSE" hrs24="FALSE" coldstone="FALSE" wifi="FALSE" servicedisruptionflag="FALSE" drivethru="FALSE" doubledrivethru="FALSE" catering="FALSE" selfservice="FALSE" coldstonesoftswirl="" kurig="FALSE" tassimo="FALSE"/><marker id="3543" storeid="914297" address1="Rochester Library" address2="115 South Ave." city="Rochester" lat="43.154471" lng="-77.607765" distance="284.495412979724" province="NY" postal="14604" phone="(585) 428-8300" timcard="TRUE" instoreseating="FALSE" hrs24="FALSE" coldstone="FALSE" wifi="FALSE" servicedisruptionflag="FALSE" drivethru="FALSE" doubledrivethru="FALSE" catering="TRUE" selfservice="FALSE" coldstonesoftswirl="" kurig="FALSE" tassimo="FALSE"/><marker id="4204" storeid="914356" address1="" address2="1 E Main St" city="Rochester" lat="43.155710" lng="-77.612470" distance="284.740927926653" province="NY" postal="14614" phone="(585) 325-1887" timcard="FALSE" instoreseating="TRUE" hrs24="FALSE" coldstone="FALSE" wifi="TRUE" servicedisruptionflag="FALSE" drivethru="FALSE" doubledrivethru="FALSE" catering="TRUE" selfservice="FALSE" coldstonesoftswirl="" kurig="TRUE" tassimo="FALSE"/><marker id="4075" storeid="917472" address1="Tim Hortons and Cold Stone Creamery" address2="1517 E. Ridge Rd." city="Irondequoit" lat="43.199157" lng="-77.576716" distance="284.887758341967" province="NY" postal="14621" phone="(585) 266-6270" timcard="TRUE" instoreseating="TRUE" hrs24="TRUE" coldstone="TRUE" wifi="FALSE" servicedisruptionflag="FALSE" drivethru="TRUE" doubledrivethru="FALSE" catering="FALSE" selfservice="FALSE" coldstonesoftswirl="" kurig="TRUE" tassimo="FALSE"/><marker id="3630" storeid="911209" address1="Tim Hortons (Tops Market)" address2="1455 Ridge Road East" city="Rochester" lat="43.198803" lng="-77.578330" distance="284.94179066045" province="NY" postal="14621" phone="(585) 467-0475" timcard="FALSE" instoreseating="FALSE" hrs24="FALSE" coldstone="FALSE" wifi="FALSE" servicedisruptionflag="FALSE" drivethru="FALSE" doubledrivethru="FALSE" catering="FALSE" selfservice="FALSE" coldstonesoftswirl="" kurig="FALSE" tassimo="FALSE"/><marker id="3485" storeid="910994" address1="Scottsville Travel Plaza" address2="20 Erie Station Road" city="Delaware North" lat="43.041167" lng="-77.715654" distance="284.958079824439" province="NY" postal="14586" phone="(585) 334-0475" timcard="FALSE" instoreseating="FALSE" hrs24="FALSE" coldstone="FALSE" wifi="FALSE" servicedisruptionflag="FALSE" drivethru="FALSE" doubledrivethru="FALSE" catering="FALSE" selfservice="FALSE" coldstonesoftswirl="" kurig="FALSE" tassimo="FALSE"/><marker id="3627" storeid="911206" address1="Tim Hortons (Tops Market)" address2="450 West Avenue" city="Rochester" lat="43.149988" lng="-77.638975" distance="285.648096814964" province="NY" postal="14611" phone="(585) 512-4100" timcard="FALSE" instoreseating="FALSE" hrs24="FALSE" coldstone="FALSE" wifi="FALSE" servicedisruptionflag="FALSE" drivethru="FALSE" doubledrivethru="FALSE" catering="FALSE" selfservice="FALSE" coldstonesoftswirl="" kurig="FALSE" tassimo="FALSE"/><marker id="4160" storeid="919364" address1="" address2="1657 Hudson Ave" city="Rochester" lat="43.197051" lng="-77.600186" distance="285.791252536922" province="NY" postal="14617" phone="(585) 266-6046" timcard="TRUE" instoreseating="TRUE" hrs24="TRUE" coldstone="FALSE" wifi="FALSE" servicedisruptionflag="FALSE" drivethru="TRUE" doubledrivethru="FALSE" catering="FALSE" selfservice="FALSE" coldstonesoftswirl="" kurig="TRUE" tassimo="FALSE"/><marker id="3626" storeid="911205" address1="Tim Hortons (Tops Market)" address2="710 Lake Avenue" city="Rochester" lat="43.177944" lng="-77.631224" distance="286.371409256199" province="NY" postal="14613" phone="(585) 254-0110" timcard="FALSE" instoreseating="FALSE" hrs24="FALSE" coldstone="FALSE" wifi="FALSE" servicedisruptionflag="FALSE" drivethru="FALSE" doubledrivethru="FALSE" catering="FALSE" selfservice="FALSE" coldstonesoftswirl="" kurig="FALSE" tassimo="FALSE"/><marker id="4085" storeid="917484" address1="" address2="1525 Lake Ave" city="Rochester" lat="43.194478" lng="-77.628824" distance="286.896747505514" province="NY" postal="14615" phone="(585) 254-6470" timcard="TRUE" instoreseating="TRUE" hrs24="TRUE" coldstone="FALSE" wifi="TRUE" servicedisruptionflag="FALSE" drivethru="TRUE" doubledrivethru="FALSE" catering="FALSE" selfservice="FALSE" coldstonesoftswirl="" kurig="TRUE" tassimo="FALSE"/><marker id="3872" storeid="911058" address1="" address2="2311 Chili Ave" city="Gates" lat="43.129937" lng="-77.694424" distance="287.261912680422" province="NY" postal="14624" phone="(585) 426-3075" timcard="TRUE" instoreseating="TRUE" hrs24="FALSE" coldstone="FALSE" wifi="FALSE" servicedisruptionflag="FALSE" drivethru="TRUE" doubledrivethru="FALSE" catering="FALSE" selfservice="FALSE" coldstonesoftswirl="" kurig="TRUE" tassimo="FALSE"/><marker id="3878" storeid="911068" address1="" address2="1631 Lyell Avenue" city="Rochester" lat="43.164663" lng="-77.668945" distance="287.467172128434" province="NY" postal="14606" phone="(585) 458-6420" timcard="TRUE" instoreseating="TRUE" hrs24="FALSE" coldstone="FALSE" wifi="TRUE" servicedisruptionflag="FALSE" drivethru="TRUE" doubledrivethru="FALSE" catering="TRUE" selfservice="FALSE" coldstonesoftswirl="" kurig="TRUE" tassimo="FALSE"/><marker id="4127" storeid="919020" address1="" address2="1508 Buffalo Rd." city="Gates" lat="43.149900" lng="-77.691282" distance="287.86580519341" province="NY" postal="14624" phone="(585) 527-9150" timcard="TRUE" instoreseating="TRUE" hrs24="TRUE" coldstone="FALSE" wifi="TRUE" servicedisruptionflag="FALSE" drivethru="TRUE" doubledrivethru="FALSE" catering="FALSE" selfservice="FALSE" coldstonesoftswirl="" kurig="TRUE" tassimo="FALSE"/><marker id="3745" storeid="914622" address1="Beverages only - Self-Serve" address2="990 W Ridge Rd" city="Greece" lat="43.203530" lng="-77.652735" distance="288.246723521993" province="NY" postal="14615" phone="(585) 865-3797" timcard="TRUE" instoreseating="FALSE" hrs24="FALSE" coldstone="FALSE" wifi="FALSE" servicedisruptionflag="FALSE" drivethru="FALSE" doubledrivethru="FALSE" catering="FALSE" selfservice="FALSE" coldstonesoftswirl="" kurig="FALSE" tassimo="FALSE"/><marker id="3628" storeid="911207" address1="Tim Hortons (Tops Market)" address2="2345 Buffalo Road" city="Rochester" lat="43.146758" lng="-77.712397" distance="288.648544639135" province="NY" postal="14624" phone="(585) 247-8040" timcard="FALSE" instoreseating="FALSE" hrs24="TRUE" coldstone="FALSE" wifi="FALSE" servicedisruptionflag="FALSE" drivethru="FALSE" doubledrivethru="FALSE" catering="FALSE" selfservice="FALSE" coldstonesoftswirl="" kurig="FALSE" tassimo="FALSE"/><marker id="4146" storeid="919349" address1="Tim Hortons and Cold Stone Creamery" address2="802 Paul Road" city="Rochester" lat="43.105960" lng="-77.748646" distance="288.707957223986" province="NY" postal="14624" phone="(585) 247-2410" timcard="TRUE" instoreseating="TRUE" hrs24="FALSE" coldstone="TRUE" wifi="TRUE" servicedisruptionflag="FALSE" drivethru="TRUE" doubledrivethru="FALSE" catering="FALSE" selfservice="FALSE" coldstonesoftswirl="" kurig="TRUE" tassimo="FALSE"/><marker id="3634" storeid="911214" address1="Tops Market" address2="3507 Mt. Read Blvd." city="Greece" lat="43.222533" lng="-77.659005" distance="289.233160095207" province="NY" postal="14616" phone="(585) 663-4400" timcard="FALSE" instoreseating="FALSE" hrs24="TRUE" coldstone="FALSE" wifi="FALSE" servicedisruptionflag="FALSE" drivethru="FALSE" doubledrivethru="FALSE" catering="FALSE" selfservice="FALSE" coldstonesoftswirl="" kurig="FALSE" tassimo="FALSE"/><marker id="4129" storeid="919022" address1="" address2="3663 Mt. Read Blvd." city="Rochester" lat="43.225651" lng="-77.659099" distance="289.356043107589" province="NY" postal="14616" phone="(585) 663-7623" timcard="TRUE" instoreseating="TRUE" hrs24="TRUE" coldstone="FALSE" wifi="TRUE" servicedisruptionflag="FALSE" drivethru="TRUE" doubledrivethru="FALSE" catering="TRUE" selfservice="FALSE" coldstonesoftswirl="" kurig="TRUE" tassimo="FALSE"/><marker id="3886" storeid="911082" address1="Tim Hortons and Cold Stone Creamery" address2="2037 West Ridge Road" city="Greece" lat="43.207680" lng="-77.682153" distance="289.643081305432" province="NY" postal="14626" phone="(585) 227-8851" timcard="TRUE" instoreseating="TRUE" hrs24="FALSE" coldstone="TRUE" wifi="TRUE" servicedisruptionflag="FALSE" drivethru="TRUE" doubledrivethru="FALSE" catering="FALSE" selfservice="FALSE" coldstonesoftswirl="" kurig="TRUE" tassimo="FALSE"/><marker id="4240" storeid="915187" address1="Greece Ridge Mall" address2="27 Greece Ridge Center Dr." city="Rochester" lat="43.204626" lng="-77.690849" distance="289.894490339014" province="NY" postal="14626" phone="" timcard="TRUE" instoreseating="TRUE" hrs24="FALSE" coldstone="FALSE" wifi="TRUE" servicedisruptionflag="FALSE" drivethru="FALSE" doubledrivethru="FALSE" catering="FALSE" selfservice="FALSE" coldstonesoftswirl="" kurig="FALSE" tassimo="FALSE"/><marker id="559" storeid="101022" address1="" address2="713  King St E" city="Gananoque" lat="44.337504" lng="-76.150235" distance="289.949686303135" province="ON" postal="K7G 1H4" phone="(613) 382-1546" timcard="TRUE" instoreseating="TRUE" hrs24="FALSE" coldstone="FALSE" wifi="TRUE" servicedisruptionflag="FALSE" drivethru="TRUE" doubledrivethru="FALSE" catering="FALSE" selfservice="FALSE" coldstonesoftswirl="" kurig="TRUE" tassimo="TRUE"/><marker id="4159" storeid="919363" address1="" address2="1563 Spencerport Road" city="Gates" lat="43.174838" lng="-77.731999" distance="290.522317164854" province="NY" postal="14606" phone="(585) 247-1470" timcard="TRUE" instoreseating="TRUE" hrs24="FALSE" coldstone="FALSE" wifi="TRUE" servicedisruptionflag="FALSE" drivethru="TRUE" doubledrivethru="FALSE" catering="FALSE" selfservice="FALSE" coldstonesoftswirl="" kurig="TRUE" tassimo="FALSE"/><marker id="3433" storeid="103979" address1="" address2="678 Hwy 401 West" city="Mallorytown" lat="44.474090" lng="-75.869780" distance="290.523363716944" province="ON" postal="K0E 1R0" phone="(613) 923-1200" timcard="TRUE" instoreseating="TRUE" hrs24="TRUE" coldstone="FALSE" wifi="FALSE" servicedisruptionflag="FALSE" drivethru="FALSE" doubledrivethru="FALSE" catering="FALSE" selfservice="FALSE" coldstonesoftswirl="" kurig="TRUE" tassimo="TRUE"/><marker id="3434" storeid="103980" address1="Mallorytown South Travel Center" address2="680 Highway 401 Eastbound" city="Mallorytown" lat="44.478794" lng="-75.895154" distance="291.4410997591" province="ON" postal="K0E 1R0" phone="(613) 923-2100" timcard="TRUE" instoreseating="TRUE" hrs24="TRUE" coldstone="FALSE" wifi="FALSE" servicedisruptionflag="FALSE" drivethru="FALSE" doubledrivethru="FALSE" catering="FALSE" selfservice="FALSE" coldstonesoftswirl="" kurig="TRUE" tassimo="TRUE"/><marker id="3405" storeid="100465" address1="Mallorytown South Travel Plaza" address2="680 Hwy 401 Eastbound" city="Mallorytown South" lat="44.504953" lng="-75.835640" distance="291.515012378423" province="ON" postal="K0E 1R0" phone="(613) 923-5222" timcard="TRUE" instoreseating="TRUE" hrs24="FALSE" coldstone="FALSE" wifi="FALSE" servicedisruptionflag="FALSE" drivethru="FALSE" doubledrivethru="FALSE" catering="FALSE" selfservice="FALSE" coldstonesoftswirl="" kurig="FALSE" tassimo="FALSE"/><marker id="4179" storeid="919388" address1="" address2="4380 Buffalo Road" city="North Chili" lat="43.120113" lng="-77.804703" distance="291.629627283434" province="NY" postal="14514" phone="(585) 594-5065" timcard="TRUE" instoreseating="TRUE" hrs24="FALSE" coldstone="FALSE" wifi="TRUE" servicedisruptionflag="FALSE" drivethru="TRUE" doubledrivethru="FALSE" catering="TRUE" selfservice="FALSE" coldstonesoftswirl="" kurig="TRUE" tassimo="FALSE"/><marker id="3629" storeid="911208" address1="Tim Hortons (Tops Market)" address2="500 Elmridge Center Drive" city="Rochester" lat="43.215479" lng="-77.729066" distance="291.916827963435" province="NY" postal="14626" phone="(585) 227-3260" timcard="FALSE" instoreseating="FALSE" hrs24="FALSE" coldstone="FALSE" wifi="FALSE" servicedisruptionflag="FALSE" drivethru="FALSE" doubledrivethru="FALSE" catering="FALSE" selfservice="FALSE" coldstonesoftswirl="" kurig="FALSE" tassimo="FALSE"/><marker id="3951" storeid="914082" address1="" address2="649 Long Pond Rd." city="Greece" lat="43.254721" lng="-77.697947" distance="292.096078014177" province="NY" postal="14612" phone="(585) 225-1910  " timcard="TRUE" instoreseating="TRUE" hrs24="FALSE" coldstone="FALSE" wifi="FALSE" servicedisruptionflag="FALSE" drivethru="TRUE" doubledrivethru="FALSE" catering="FALSE" selfservice="FALSE" coldstonesoftswirl="" kurig="TRUE" tassimo="FALSE"/><marker id="3895" storeid="911112" address1="" address2="403 North Union Street" city="Olean" lat="42.085372" lng="-78.429970" distance="292.236718367542" province="NY" postal="14760" phone="(716) 372-1801" timcard="TRUE" instoreseating="TRUE" hrs24="TRUE" coldstone="FALSE" wifi="TRUE" servicedisruptionflag="FALSE" drivethru="TRUE" doubledrivethru="FALSE" catering="FALSE" selfservice="FALSE" coldstonesoftswirl="" kurig="TRUE" tassimo="FALSE"/><marker id="3786" storeid="910744" address1="" address2="230 Western Ave" city="Augusta" lat="44.314356" lng="-69.800914" distance="292.567110995591" province="ME" postal="4330" phone="(207) 629-5150" timcard="TRUE" instoreseating="TRUE" hrs24="TRUE" coldstone="FALSE" wifi="TRUE" servicedisruptionflag="FALSE" drivethru="TRUE" doubledrivethru="FALSE" catering="TRUE" selfservice="FALSE" coldstonesoftswirl="" kurig="TRUE" tassimo="FALSE"/><marker id="2491" storeid="101870" address1="CFB Kingston" address2="29 Niagara Park Dr" city="Kingston" lat="44.238958" lng="-76.454287" distance="293.215029093299" province="ON" postal="K7K 7B4" phone="(613) 548-7666" timcard="TRUE" instoreseating="FALSE" hrs24="FALSE" coldstone="FALSE" wifi="TRUE" servicedisruptionflag="FALSE" drivethru="TRUE" doubledrivethru="FALSE" catering="FALSE" selfservice="FALSE" coldstonesoftswirl="" kurig="TRUE" tassimo="TRUE"/><marker id="1796" storeid="100026" address1="" address2="77 William Street" city="Brockville" lat="44.592840" lng="-75.688810" distance="293.306097335772" province="ON" postal="K6V 4V7" phone="(613) 345-0132" timcard="TRUE" instoreseating="TRUE" hrs24="TRUE" coldstone="FALSE" wifi="TRUE" servicedisruptionflag="FALSE" doubledrivethru="TRUE" drivethru="FALSE" catering="FALSE" selfservice="FALSE" coldstonesoftswirl="" kurig="TRUE" tassimo="TRUE"/><marker id="3586" storeid="911158" address1="Tim Hortons (Tops Market)" address2="2401 West State Street" city="Olean" lat="42.077144" lng="-78.457212" distance="293.430408121363" province="NY" postal="14760" phone="(716) 373-1021" timcard="FALSE" instoreseating="FALSE" hrs24="TRUE" coldstone="FALSE" wifi="FALSE" servicedisruptionflag="FALSE" drivethru="FALSE" doubledrivethru="FALSE" catering="FALSE" selfservice="FALSE" coldstonesoftswirl="" kurig="FALSE" tassimo="FALSE"/><marker id="262" storeid="100220" address1="" address2="285 Ontario St" city="Kingston" lat="44.232224" lng="-76.479131" distance="293.596553955732" province="ON" postal="K7K 2X7" phone="(613) 542-6457" timcard="TRUE" instoreseating="TRUE" hrs24="FALSE" coldstone="FALSE" wifi="TRUE" servicedisruptionflag="FALSE" drivethru="TRUE" doubledrivethru="FALSE" catering="FALSE" selfservice="FALSE" coldstonesoftswirl="" kurig="TRUE" tassimo="TRUE"/><marker id="3201" storeid="104390" address1="Kingston Hospital, Cafeteria " address2="76 Stuart Street" city="Kingston" lat="44.224328" lng="-76.494609" distance="293.635421843257" province="ON" postal="K7L 2V7" phone="" timcard="TRUE" instoreseating="TRUE" hrs24="FALSE" coldstone="FALSE" wifi="FALSE" servicedisruptionflag="FALSE" drivethru="FALSE" doubledrivethru="FALSE" catering="FALSE" selfservice="FALSE" coldstonesoftswirl="" kurig="TRUE" tassimo="TRUE"/><marker id="3194" storeid="104353" address1="Kingston Hospital Lobby" address2="76 Stuart St" city="Kingston" lat="44.224330" lng="-76.494610" distance="293.635561297643" province="ON" postal="K7L 2V7" phone="(613) 549-6666" timcard="TRUE" instoreseating="FALSE" hrs24="FALSE" coldstone="FALSE" wifi="FALSE" servicedisruptionflag="FALSE" drivethru="FALSE" doubledrivethru="FALSE" catering="FALSE" selfservice="FALSE" coldstonesoftswirl="" kurig="FALSE" tassimo="FALSE"/><marker id="3344" storeid="103909" address1="Queen's University Bioscience Building" address2="116 Barrie St" city="Kingston" lat="44.226801" lng="-76.490733" distance="293.6524245154" province="ON" postal="K7L 3J9" phone="(613) 548-8300" timcard="TRUE" instoreseating="FALSE" hrs24="FALSE" coldstone="FALSE" wifi="FALSE" servicedisruptionflag="FALSE" drivethru="FALSE" doubledrivethru="FALSE" catering="FALSE" selfservice="FALSE" coldstonesoftswirl="" kurig="FALSE" tassimo="FALSE"/><marker id="2956" storeid="102802" address1="Queen's University" address2="116 Barrie Street" city="Kingston" lat="44.226801" lng="-76.490733" distance="293.6524245154" province="ON" postal="K7L 3N6" phone="(613) 548-8300" timcard="FALSE" instoreseating="FALSE" hrs24="FALSE" coldstone="FALSE" wifi="FALSE" servicedisruptionflag="FALSE" drivethru="FALSE" doubledrivethru="FALSE" catering="FALSE" selfservice="FALSE" coldstonesoftswirl="" kurig="TRUE" tassimo="TRUE"/><marker id="4058" storeid="915737" address1="Tim Hortons and Cold Stone Creamery" address2="3012 NY SR 417" city="Olean" lat="42.076999" lng="-78.463901" distance="293.758440121725" province="NY" postal="14760" phone="(716) 373-3280" timcard="TRUE" instoreseating="TRUE" hrs24="FALSE" coldstone="TRUE" wifi="TRUE" servicedisruptionflag="FALSE" drivethru="TRUE" doubledrivethru="FALSE" catering="FALSE" selfservice="FALSE" coldstonesoftswirl="" kurig="TRUE" tassimo="FALSE"/><marker id="3832" storeid="910963" address1="" address2="54 Bangor 